header: 
  seq: 285670
  stamp: 
    secs: 1717502391
    nsecs: 762219039
  frame_id: "imu_link"
orientation: 
  x: -0.007986016393158607
  y: -0.006887950377573047
  z: -0.4933579277441322
  w: 0.869762458843666
orientation_covariance: [0.01, 0.0, 0.0, 0.0, 0.01, 0.0, 0.0, 0.0, 0.01]
angular_velocity: 
  x: -0.004134853836148977
  y: -0.001767085283063352
  z: 0.0002770494029391557
angular_velocity_covariance: [0.01, 0.0, 0.0, 0.0, 0.01, 0.0, 0.0, 0.0, 0.01]
linear_acceleration: 
  x: -0.10512025630654118
  y: 0.012716770966414844
  z: 9.74118263357634
linear_acceleration_covariance: [0.01, 0.0, 0.0, 0.0, 0.01, 0.0, 0.0, 0.0, 0.01]
---
header: 
  seq: 285671
  stamp: 
    secs: 1717502391
    nsecs: 772290968
  frame_id: "imu_link"
orientation: 
  x: -0.007989582474051122
  y: -0.00687040545776956
  z: -0.49335795086634526
  w: 0.869762551744841
orientation_covariance: [0.01, 0.0, 0.0, 0.0, 0.01, 0.0, 0.0, 0.0, 0.01]
angular_velocity: 
  x: -0.00318714277818799
  y: -0.0020957854576408863
  z: 2.229270467069e-05
angular_velocity_covariance: [0.01, 0.0, 0.0, 0.0, 0.01, 0.0, 0.0, 0.0, 0.01]
linear_acceleration: 
  x: -0.11097627814363749
  y: 0.01881958776899427
  z: 9.742917932975134
linear_acceleration_covariance: [0.01, 0.0, 0.0, 0.0, 0.01, 0.0, 0.0, 0.0, 0.01]
---
header: 
  seq: 285672
  stamp: 
    secs: 1717502391
    nsecs: 787353213
  frame_id: "imu_link"
orientation: 
  x: -0.007972691238777422
  y: -0.006859280546413177
  z: -0.4933553683687444
  w: 0.8697642594212166
orientation_covariance: [0.01, 0.0, 0.0, 0.0, 0.01, 0.0, 0.0, 0.0, 0.01]
angular_velocity: 
  x: -0.0004885808448307216
  y: 0.0004263227747287601
  z: -0.0006180104101076722
angular_velocity_covariance: [0.01, 0.0, 0.0, 0.0, 0.01, 0.0, 0.0, 0.0, 0.01]
linear_acceleration: 
  x: -0.14728994395150735
  y: 0.05977250195589386
  z: 9.55002479175161
linear_acceleration_covariance: [0.01, 0.0, 0.0, 0.0, 0.01, 0.0, 0.0, 0.0, 0.01]
---
header: 
  seq: 285673
  stamp: 
    secs: 1717502391
    nsecs: 792403211
  frame_id: "imu_link"
orientation: 
  x: -0.007965447561240855
  y: -0.006849547373993201
  z: -0.4933535702606283
  w: 0.8697654224312507
orientation_covariance: [0.01, 0.0, 0.0, 0.0, 0.01, 0.0, 0.0, 0.0, 0.01]
angular_velocity: 
  x: -0.0005285196821205318
  y: -0.0011508059687912464
  z: -0.0004392375994939357
angular_velocity_covariance: [0.01, 0.0, 0.0, 0.0, 0.01, 0.0, 0.0, 0.0, 0.01]
linear_acceleration: 
  x: -0.12977323816502312
  y: -0.004802303286122792
  z: 9.917642489493284
linear_acceleration_covariance: [0.01, 0.0, 0.0, 0.0, 0.01, 0.0, 0.0, 0.0, 0.01]
---
header: 
  seq: 285674
  stamp: 
    secs: 1717502391
    nsecs: 802351729
  frame_id: "imu_link"
orientation: 
  x: -0.007979901166112358
  y: -0.006842600170957943
  z: -0.49332782722177004
  w: 0.8697799462444089
orientation_covariance: [0.01, 0.0, 0.0, 0.0, 0.01, 0.0, 0.0, 0.0, 0.01]
angular_velocity: 
  x: -0.004811410326510668
  y: -0.0031817432027310133
  z: -0.005843751132488251
angular_velocity_covariance: [0.01, 0.0, 0.0, 0.0, 0.01, 0.0, 0.0, 0.0, 0.01]
linear_acceleration: 
  x: 0.06811368373626636
  y: 0.24206838666340688
  z: 9.711900826194901
linear_acceleration_covariance: [0.01, 0.0, 0.0, 0.0, 0.01, 0.0, 0.0, 0.0, 0.01]
---
header: 
  seq: 285675
  stamp: 
    secs: 1717502391
    nsecs: 812418421
  frame_id: "imu_link"
orientation: 
  x: -0.008138224146802769
  y: -0.007029052787382831
  z: -0.4910070512373711
  w: 0.8710892246835742
orientation_covariance: [0.01, 0.0, 0.0, 0.0, 0.01, 0.0, 0.0, 0.0, 0.01]
angular_velocity: 
  x: -0.018664931878447533
  y: -0.018036577850580215
  z: -0.5324585437774658
angular_velocity_covariance: [0.01, 0.0, 0.0, 0.0, 0.01, 0.0, 0.0, 0.0, 0.01]
linear_acceleration: 
  x: 3.3906647424001277
  y: 3.259869975149053
  z: 9.988424438654619
linear_acceleration_covariance: [0.01, 0.0, 0.0, 0.0, 0.01, 0.0, 0.0, 0.0, 0.01]
---
header: 
  seq: 285676
  stamp: 
    secs: 1717502391
    nsecs: 822340642
  frame_id: "imu_link"
orientation: 
  x: -0.008108096718645083
  y: -0.00738536767764889
  z: -0.4835761563029032
  w: 0.8752335780619808
orientation_covariance: [0.01, 0.0, 0.0, 0.0, 0.01, 0.0, 0.0, 0.0, 0.01]
angular_velocity: 
  x: 0.03535619378089905
  y: 0.009158885106444359
  z: -1.7021784782409668
angular_velocity_covariance: [0.01, 0.0, 0.0, 0.0, 0.01, 0.0, 0.0, 0.0, 0.01]
linear_acceleration: 
  x: 4.551401715347209
  y: 1.2895170804290426
  z: 9.53460985319748
linear_acceleration_covariance: [0.01, 0.0, 0.0, 0.0, 0.01, 0.0, 0.0, 0.0, 0.01]
---
header: 
  seq: 285677
  stamp: 
    secs: 1717502391
    nsecs: 832350075
  frame_id: "imu_link"
orientation: 
  x: -0.008142279532037715
  y: -0.007627341131638811
  z: -0.4741468403008027
  w: 0.8803750909606932
orientation_covariance: [0.01, 0.0, 0.0, 0.0, 0.01, 0.0, 0.0, 0.0, 0.01]
angular_velocity: 
  x: 0.04797827824950218
  y: 0.006181342992931604
  z: -2.1491124629974365
angular_velocity_covariance: [0.01, 0.0, 0.0, 0.0, 0.01, 0.0, 0.0, 0.0, 0.01]
linear_acceleration: 
  x: 4.484800924421495
  y: -3.57104979989137
  z: 10.139074912618657
linear_acceleration_covariance: [0.01, 0.0, 0.0, 0.0, 0.01, 0.0, 0.0, 0.0, 0.01]
---
header: 
  seq: 285678
  stamp: 
    secs: 1717502391
    nsecs: 842365409
  frame_id: "imu_link"
orientation: 
  x: -0.00853132277832097
  y: -0.0076087450913710905
  z: -0.4658112304462043
  w: 0.8848102740813873
orientation_covariance: [0.01, 0.0, 0.0, 0.0, 0.01, 0.0, 0.0, 0.0, 0.01]
angular_velocity: 
  x: -0.050301022827625275
  y: -0.042346976697444916
  z: -1.8880698680877686
angular_velocity_covariance: [0.01, 0.0, 0.0, 0.0, 0.01, 0.0, 0.0, 0.0, 0.01]
linear_acceleration: 
  x: 3.157435708295979
  y: -1.0473127810068026
  z: 9.591051836116465
linear_acceleration_covariance: [0.01, 0.0, 0.0, 0.0, 0.01, 0.0, 0.0, 0.0, 0.01]
---
header: 
  seq: 285679
  stamp: 
    secs: 1717502391
    nsecs: 852420943
  frame_id: "imu_link"
orientation: 
  x: -0.009025981735437042
  y: -0.007393220633898947
  z: -0.4610480012672169
  w: 0.8872984911910279
orientation_covariance: [0.01, 0.0, 0.0, 0.0, 0.01, 0.0, 0.0, 0.0, 0.01]
angular_velocity: 
  x: -0.15172027051448822
  y: -0.0842234343290329
  z: -1.0722776651382446
angular_velocity_covariance: [0.01, 0.0, 0.0, 0.0, 0.01, 0.0, 0.0, 0.0, 0.01]
linear_acceleration: 
  x: -1.25051850972983
  y: 5.863473920534247
  z: 9.648612630489936
linear_acceleration_covariance: [0.01, 0.0, 0.0, 0.0, 0.01, 0.0, 0.0, 0.0, 0.01]
---
header: 
  seq: 285680
  stamp: 
    secs: 1717502391
    nsecs: 862348013
  frame_id: "imu_link"
orientation: 
  x: -0.00873411627595584
  y: -0.0074403952302908504
  z: -0.46084777748895994
  w: 0.8874050268705835
orientation_covariance: [0.01, 0.0, 0.0, 0.0, 0.01, 0.0, 0.0, 0.0, 0.01]
angular_velocity: 
  x: 0.029698271304368973
  y: 0.014573974534869194
  z: -0.045576248317956924
angular_velocity_covariance: [0.01, 0.0, 0.0, 0.0, 0.01, 0.0, 0.0, 0.0, 0.01]
linear_acceleration: 
  x: -2.790563504309183
  y: 0.06262113291633518
  z: 9.287467599505765
linear_acceleration_covariance: [0.01, 0.0, 0.0, 0.0, 0.01, 0.0, 0.0, 0.0, 0.01]
---
header: 
  seq: 285681
  stamp: 
    secs: 1717502391
    nsecs: 872394199
  frame_id: "imu_link"
orientation: 
  x: -0.008701530609777193
  y: -0.007017490281633433
  z: -0.4626245080188246
  w: 0.8864838423657448
orientation_covariance: [0.01, 0.0, 0.0, 0.0, 0.01, 0.0, 0.0, 0.0, 0.01]
angular_velocity: 
  x: 0.0025093720760196447
  y: -0.0023807245306670666
  z: 0.3996080756187439
angular_velocity_covariance: [0.01, 0.0, 0.0, 0.0, 0.01, 0.0, 0.0, 0.0, 0.01]
linear_acceleration: 
  x: -4.254155431461735
  y: -6.838712639314219
  z: 9.62326995274376
linear_acceleration_covariance: [0.01, 0.0, 0.0, 0.0, 0.01, 0.0, 0.0, 0.0, 0.01]
---
header: 
  seq: 285682
  stamp: 
    secs: 1717502391
    nsecs: 882358853
  frame_id: "imu_link"
orientation: 
  x: -0.009150314136638664
  y: -0.006559852301330803
  z: -0.46086939671653304
  w: 0.8873965512999947
orientation_covariance: [0.01, 0.0, 0.0, 0.0, 0.01, 0.0, 0.0, 0.0, 0.01]
angular_velocity: 
  x: -0.09119284898042679
  y: -0.048224691301584244
  z: -0.3949306011199951
angular_velocity_covariance: [0.01, 0.0, 0.0, 0.0, 0.01, 0.0, 0.0, 0.0, 0.01]
linear_acceleration: 
  x: -0.7413507275620173
  y: -3.551995299177139
  z: 10.020380433741146
linear_acceleration_covariance: [0.01, 0.0, 0.0, 0.0, 0.01, 0.0, 0.0, 0.0, 0.01]
---
header: 
  seq: 285683
  stamp: 
    secs: 1717502391
    nsecs: 892423513
  frame_id: "imu_link"
orientation: 
  x: -0.009116997738410139
  y: -0.006702614032946435
  z: -0.4547621897719338
  w: 0.8905410187471428
orientation_covariance: [0.01, 0.0, 0.0, 0.0, 0.01, 0.0, 0.0, 0.0, 0.01]
angular_velocity: 
  x: -0.006019897293299437
  y: -0.012506197206676006
  z: -1.3736085891723633
angular_velocity_covariance: [0.01, 0.0, 0.0, 0.0, 0.01, 0.0, 0.0, 0.0, 0.01]
linear_acceleration: 
  x: -0.04029771201268574
  y: 1.8029431959899485
  z: 9.935686863294322
linear_acceleration_covariance: [0.01, 0.0, 0.0, 0.0, 0.01, 0.0, 0.0, 0.0, 0.01]
---
header: 
  seq: 285684
  stamp: 
    secs: 1717502391
    nsecs: 902426841
  frame_id: "imu_link"
orientation: 
  x: -0.009368667345223495
  y: -0.006304033842374795
  z: -0.4460372069038442
  w: 0.8949431810382745
orientation_covariance: [0.01, 0.0, 0.0, 0.0, 0.01, 0.0, 0.0, 0.0, 0.01]
angular_velocity: 
  x: -0.13939137756824493
  y: -0.009593511931598186
  z: -1.9528223276138306
angular_velocity_covariance: [0.01, 0.0, 0.0, 0.0, 0.01, 0.0, 0.0, 0.0, 0.01]
linear_acceleration: 
  x: 0.5552465456607562
  y: 2.397950188701092
  z: 10.642118115388634
linear_acceleration_covariance: [0.01, 0.0, 0.0, 0.0, 0.01, 0.0, 0.0, 0.0, 0.01]
---
header: 
  seq: 285685
  stamp: 
    secs: 1717502391
    nsecs: 912403446
  frame_id: "imu_link"
orientation: 
  x: -0.011023896836841332
  y: -0.003973679080108959
  z: -0.4373845867983185
  w: 0.8991982021803442
orientation_covariance: [0.01, 0.0, 0.0, 0.0, 0.01, 0.0, 0.0, 0.0, 0.01]
angular_velocity: 
  x: -0.601849377155304
  y: -0.10302923619747162
  z: -1.9215072393417358
angular_velocity_covariance: [0.01, 0.0, 0.0, 0.0, 0.01, 0.0, 0.0, 0.0, 0.01]
linear_acceleration: 
  x: -0.7674859348099329
  y: 1.3614475237977368
  z: 9.503887747315044
linear_acceleration_covariance: [0.01, 0.0, 0.0, 0.0, 0.01, 0.0, 0.0, 0.0, 0.01]
---
header: 
  seq: 285686
  stamp: 
    secs: 1717502391
    nsecs: 922326667
  frame_id: "imu_link"
orientation: 
  x: -0.012465700855740624
  y: -0.0028107491961339064
  z: -0.4298839319464847
  w: 0.9027937256346887
orientation_covariance: [0.01, 0.0, 0.0, 0.0, 0.01, 0.0, 0.0, 0.0, 0.01]
angular_velocity: 
  x: -0.35667720437049866
  y: -0.19411076605319977
  z: -1.6598492860794067
angular_velocity_covariance: [0.01, 0.0, 0.0, 0.0, 0.01, 0.0, 0.0, 0.0, 0.01]
linear_acceleration: 
  x: -2.593866860798145
  y: -0.6406326375650203
  z: 9.61399158085305
linear_acceleration_covariance: [0.01, 0.0, 0.0, 0.0, 0.01, 0.0, 0.0, 0.0, 0.01]
---
header: 
  seq: 285687
  stamp: 
    secs: 1717502391
    nsecs: 932352570
  frame_id: "imu_link"
orientation: 
  x: -0.014452617183238566
  y: -0.002097327166535227
  z: -0.4239156766522895
  w: 0.9055839122708303
orientation_covariance: [0.01, 0.0, 0.0, 0.0, 0.01, 0.0, 0.0, 0.0, 0.01]
angular_velocity: 
  x: -0.2981862723827362
  y: -0.3156779110431671
  z: -1.3152649402618408
angular_velocity_covariance: [0.01, 0.0, 0.0, 0.0, 0.01, 0.0, 0.0, 0.0, 0.01]
linear_acceleration: 
  x: -1.964217812194235
  y: -1.9277870279475011
  z: 10.07716947653989
linear_acceleration_covariance: [0.01, 0.0, 0.0, 0.0, 0.01, 0.0, 0.0, 0.0, 0.01]
---
header: 
  seq: 285688
  stamp: 
    secs: 1717502391
    nsecs: 942370180
  frame_id: "imu_link"
orientation: 
  x: -0.01680570273137277
  y: -0.0005925385872762556
  z: -0.41901861194215984
  w: 0.9078219099029243
orientation_covariance: [0.01, 0.0, 0.0, 0.0, 0.01, 0.0, 0.0, 0.0, 0.01]
angular_velocity: 
  x: -0.47051599621772766
  y: -0.30911141633987427
  z: -1.071995735168457
angular_velocity_covariance: [0.01, 0.0, 0.0, 0.0, 0.01, 0.0, 0.0, 0.0, 0.01]
linear_acceleration: 
  x: -1.289031767419551
  y: -1.8219100184187669
  z: 10.246028721090116
linear_acceleration_covariance: [0.01, 0.0, 0.0, 0.0, 0.01, 0.0, 0.0, 0.0, 0.01]
---
header: 
  seq: 285689
  stamp: 
    secs: 1717502391
    nsecs: 952412956
  frame_id: "imu_link"
orientation: 
  x: -0.01960248568446818
  y: 0.0011490073614164097
  z: -0.41409973267298267
  w: 0.9100196886536235
orientation_covariance: [0.01, 0.0, 0.0, 0.0, 0.01, 0.0, 0.0, 0.0, 0.01]
angular_velocity: 
  x: -0.5710405111312866
  y: -0.3503918945789337
  z: -1.0708824396133423
angular_velocity_covariance: [0.01, 0.0, 0.0, 0.0, 0.01, 0.0, 0.0, 0.0, 0.01]
linear_acceleration: 
  x: 0.7125768948302446
  y: 0.18164349204867036
  z: 9.490421823980402
linear_acceleration_covariance: [0.01, 0.0, 0.0, 0.0, 0.01, 0.0, 0.0, 0.0, 0.01]
---
header: 
  seq: 285690
  stamp: 
    secs: 1717502391
    nsecs: 962324184
  frame_id: "imu_link"
orientation: 
  x: -0.021108669958498357
  y: 0.002413013656735484
  z: -0.40901348356712713
  w: 0.9122809718929574
orientation_covariance: [0.01, 0.0, 0.0, 0.0, 0.01, 0.0, 0.0, 0.0, 0.01]
angular_velocity: 
  x: -0.38405779004096985
  y: -0.1588452160358429
  z: -1.1080220937728882
angular_velocity_covariance: [0.01, 0.0, 0.0, 0.0, 0.01, 0.0, 0.0, 0.0, 0.01]
linear_acceleration: 
  x: 0.3474008033002266
  y: 0.753363565979037
  z: 10.122448917747263
linear_acceleration_covariance: [0.01, 0.0, 0.0, 0.0, 0.01, 0.0, 0.0, 0.0, 0.01]
---
header: 
  seq: 285691
  stamp: 
    secs: 1717502391
    nsecs: 972411728
  frame_id: "imu_link"
orientation: 
  x: -0.023250100959615896
  y: 0.005403447268328982
  z: -0.4041013296379079
  w: 0.9144027290794036
orientation_covariance: [0.01, 0.0, 0.0, 0.0, 0.01, 0.0, 0.0, 0.0, 0.01]
angular_velocity: 
  x: -0.7599124312400818
  y: -0.13739772140979767
  z: -1.0575752258300781
angular_velocity_covariance: [0.01, 0.0, 0.0, 0.0, 0.01, 0.0, 0.0, 0.0, 0.01]
linear_acceleration: 
  x: 0.08438217268217729
  y: 1.5949593432052285
  z: 9.429938420093173
linear_acceleration_covariance: [0.01, 0.0, 0.0, 0.0, 0.01, 0.0, 0.0, 0.0, 0.01]
---
header: 
  seq: 285692
  stamp: 
    secs: 1717502391
    nsecs: 982363546
  frame_id: "imu_link"
orientation: 
  x: -0.025066299356736835
  y: 0.004928183031320325
  z: -0.4006265823281415
  w: 0.915885219435624
orientation_covariance: [0.01, 0.0, 0.0, 0.0, 0.01, 0.0, 0.0, 0.0, 0.01]
angular_velocity: 
  x: -0.08206505328416824
  y: -0.36521658301353455
  z: -0.7592872977256775
angular_velocity_covariance: [0.01, 0.0, 0.0, 0.0, 0.01, 0.0, 0.0, 0.0, 0.01]
linear_acceleration: 
  x: -0.09717571744672608
  y: 0.326506742517731
  z: 9.934225558537443
linear_acceleration_covariance: [0.01, 0.0, 0.0, 0.0, 0.01, 0.0, 0.0, 0.0, 0.01]
---
header: 
  seq: 285693
  stamp: 
    secs: 1717502391
    nsecs: 992427942
  frame_id: "imu_link"
orientation: 
  x: -0.02685425847645376
  y: 0.005605258243352615
  z: -0.39940711970527915
  w: 0.9163631281377693
orientation_covariance: [0.01, 0.0, 0.0, 0.0, 0.01, 0.0, 0.0, 0.0, 0.01]
angular_velocity: 
  x: -0.2785576283931732
  y: -0.28120145201683044
  z: -0.2601484954357147
angular_velocity_covariance: [0.01, 0.0, 0.0, 0.0, 0.01, 0.0, 0.0, 0.0, 0.01]
linear_acceleration: 
  x: -0.7410573249663001
  y: 0.27634719986787676
  z: 10.204982497100326
linear_acceleration_covariance: [0.01, 0.0, 0.0, 0.0, 0.01, 0.0, 0.0, 0.0, 0.01]
---
header: 
  seq: 285694
  stamp: 
    secs: 1717502392
    nsecs:   7423802
  frame_id: "imu_link"
orientation: 
  x: -0.029600062702365374
  y: 0.006634800447038321
  z: -0.39937262590394407
  w: 0.9162867026153072
orientation_covariance: [0.01, 0.0, 0.0, 0.0, 0.01, 0.0, 0.0, 0.0, 0.01]
angular_velocity: 
  x: -0.42125871777534485
  y: -0.42363667488098145
  z: 0.0027469589840620756
angular_velocity_covariance: [0.01, 0.0, 0.0, 0.0, 0.01, 0.0, 0.0, 0.0, 0.01]
linear_acceleration: 
  x: 0.24318097615623233
  y: 1.0485104800852727
  z: 10.711444239685928
linear_acceleration_covariance: [0.01, 0.0, 0.0, 0.0, 0.01, 0.0, 0.0, 0.0, 0.01]
---
header: 
  seq: 285695
  stamp: 
    secs: 1717502392
    nsecs:  12422253
  frame_id: "imu_link"
orientation: 
  x: -0.032894902904889056
  y: 0.00880152343805838
  z: -0.3988633253122867
  w: 0.9163779276416867
orientation_covariance: [0.01, 0.0, 0.0, 0.0, 0.01, 0.0, 0.0, 0.0, 0.01]
angular_velocity: 
  x: -0.6729847192764282
  y: -0.4279170632362366
  z: -0.09161054342985153
angular_velocity_covariance: [0.01, 0.0, 0.0, 0.0, 0.01, 0.0, 0.0, 0.0, 0.01]
linear_acceleration: 
  x: 0.651946618398506
  y: 0.6223462351636235
  z: 10.011610778568924
linear_acceleration_covariance: [0.01, 0.0, 0.0, 0.0, 0.01, 0.0, 0.0, 0.0, 0.01]
---
header: 
  seq: 285696
  stamp: 
    secs: 1717502392
    nsecs:  22336490
  frame_id: "imu_link"
orientation: 
  x: -0.03688503737607865
  y: 0.010330107047096913
  z: -0.3980510040389138
  w: 0.9165632444571261
orientation_covariance: [0.01, 0.0, 0.0, 0.0, 0.01, 0.0, 0.0, 0.0, 0.01]
angular_velocity: 
  x: -0.6016880869865417
  y: -0.5955811142921448
  z: -0.16019949316978455
angular_velocity_covariance: [0.01, 0.0, 0.0, 0.0, 0.01, 0.0, 0.0, 0.0, 0.01]
linear_acceleration: 
  x: 1.646562580747997
  y: -0.8561928417742048
  z: 10.384270891037303
linear_acceleration_covariance: [0.01, 0.0, 0.0, 0.0, 0.01, 0.0, 0.0, 0.0, 0.01]
---
header: 
  seq: 285697
  stamp: 
    secs: 1717502392
    nsecs:  32405567
  frame_id: "imu_link"
orientation: 
  x: -0.041904361555387806
  y: 0.011348732621138783
  z: -0.3982459563120046
  w: 0.9162507238914828
orientation_covariance: [0.01, 0.0, 0.0, 0.0, 0.01, 0.0, 0.0, 0.0, 0.01]
angular_velocity: 
  x: -0.5596854090690613
  y: -0.8251145482063293
  z: 0.056991178542375565
angular_velocity_covariance: [0.01, 0.0, 0.0, 0.0, 0.01, 0.0, 0.0, 0.0, 0.01]
linear_acceleration: 
  x: 2.1046272797589696
  y: -2.9619414446052112
  z: 9.040479696128994
linear_acceleration_covariance: [0.01, 0.0, 0.0, 0.0, 0.01, 0.0, 0.0, 0.0, 0.01]
---
header: 
  seq: 285698
  stamp: 
    secs: 1717502392
    nsecs:  42357192
  frame_id: "imu_link"
orientation: 
  x: -0.04677565540946848
  y: 0.010873076666133501
  z: -0.400758083889755
  w: 0.9149244627081732
orientation_covariance: [0.01, 0.0, 0.0, 0.0, 0.01, 0.0, 0.0, 0.0, 0.01]
angular_velocity: 
  x: -0.24780887365341187
  y: -0.934358537197113
  z: 0.5491552948951721
angular_velocity_covariance: [0.01, 0.0, 0.0, 0.0, 0.01, 0.0, 0.0, 0.0, 0.01]
linear_acceleration: 
  x: 1.817643351021982
  y: -3.778642753653625
  z: 8.684845610709203
linear_acceleration_covariance: [0.01, 0.0, 0.0, 0.0, 0.01, 0.0, 0.0, 0.0, 0.01]
---
header: 
  seq: 285699
  stamp: 
    secs: 1717502392
    nsecs:  52353641
  frame_id: "imu_link"
orientation: 
  x: -0.050537738167616024
  y: 0.008602618054688548
  z: -0.4056412583954355
  w: 0.912593612442512
orientation_covariance: [0.01, 0.0, 0.0, 0.0, 0.01, 0.0, 0.0, 0.0, 0.01]
angular_velocity: 
  x: 0.18040888011455536
  y: -0.8963378071784973
  z: 1.049207091331482
angular_velocity_covariance: [0.01, 0.0, 0.0, 0.0, 0.01, 0.0, 0.0, 0.0, 0.01]
linear_acceleration: 
  x: 1.4065787795696088
  y: -3.14623617730771
  z: 9.54664917776322
linear_acceleration_covariance: [0.01, 0.0, 0.0, 0.0, 0.01, 0.0, 0.0, 0.0, 0.01]
---
header: 
  seq: 285700
  stamp: 
    secs: 1717502392
    nsecs:  62229802
  frame_id: "imu_link"
orientation: 
  x: -0.05322258090916186
  y: 0.005800259715068486
  z: -0.4116099077042311
  w: 0.909786237392235
orientation_covariance: [0.01, 0.0, 0.0, 0.0, 0.01, 0.0, 0.0, 0.0, 0.01]
angular_velocity: 
  x: 0.3597630262374878
  y: -0.7469015121459961
  z: 1.2837486267089844
angular_velocity_covariance: [0.01, 0.0, 0.0, 0.0, 0.01, 0.0, 0.0, 0.0, 0.01]
linear_acceleration: 
  x: 2.1710942699678824
  y: -1.9586719323130102
  z: 12.020369616410575
linear_acceleration_covariance: [0.01, 0.0, 0.0, 0.0, 0.01, 0.0, 0.0, 0.0, 0.01]
---
header: 
  seq: 285701
  stamp: 
    secs: 1717502392
    nsecs:  72237741
  frame_id: "imu_link"
orientation: 
  x: -0.05364389075935446
  y: 0.003862758548820407
  z: -0.41822872846779413
  w: 0.906748114287978
orientation_covariance: [0.01, 0.0, 0.0, 0.0, 0.01, 0.0, 0.0, 0.0, 0.01]
angular_velocity: 
  x: 0.387713760137558
  y: -0.27357423305511475
  z: 1.4332383871078491
angular_velocity_covariance: [0.01, 0.0, 0.0, 0.0, 0.01, 0.0, 0.0, 0.0, 0.01]
linear_acceleration: 
  x: 1.724145533579395
  y: -1.2229714309250137
  z: 14.574142156270716
linear_acceleration_covariance: [0.01, 0.0, 0.0, 0.0, 0.01, 0.0, 0.0, 0.0, 0.01]
---
header: 
  seq: 285702
  stamp: 
    secs: 1717502392
    nsecs:  82286599
  frame_id: "imu_link"
orientation: 
  x: -0.05020229361949278
  y: 0.0010971824994584398
  z: -0.42451616139111303
  w: 0.9040268550345502
orientation_covariance: [0.01, 0.0, 0.0, 0.0, 0.01, 0.0, 0.0, 0.0, 0.01]
angular_velocity: 
  x: 0.8491111993789673
  y: 0.3593686521053314
  z: 1.341415286064148
angular_velocity_covariance: [0.01, 0.0, 0.0, 0.0, 0.01, 0.0, 0.0, 0.0, 0.01]
linear_acceleration: 
  x: 1.6430279357028617
  y: 0.0956539982983601
  z: 16.353101687938384
linear_acceleration_covariance: [0.01, 0.0, 0.0, 0.0, 0.01, 0.0, 0.0, 0.0, 0.01]
---
header: 
  seq: 285703
  stamp: 
    secs: 1717502392
    nsecs:  92416120
  frame_id: "imu_link"
orientation: 
  x: -0.04235520614007844
  y: -0.0040210329474765745
  z: -0.4310162940465681
  w: 0.9013405694149295
orientation_covariance: [0.01, 0.0, 0.0, 0.0, 0.01, 0.0, 0.0, 0.0, 0.01]
angular_velocity: 
  x: 1.6471531391143799
  y: 0.9447873830795288
  z: 1.3540756702423096
angular_velocity_covariance: [0.01, 0.0, 0.0, 0.0, 0.01, 0.0, 0.0, 0.0, 0.01]
linear_acceleration: 
  x: -0.36230962237674363
  y: 0.8064649833909092
  z: 17.130470152824447
linear_acceleration_covariance: [0.01, 0.0, 0.0, 0.0, 0.01, 0.0, 0.0, 0.0, 0.01]
---
header: 
  seq: 285704
  stamp: 
    secs: 1717502392
    nsecs: 107409164
  frame_id: "imu_link"
orientation: 
  x: -0.028687720505993393
  y: -0.015962838171243682
  z: -0.44359380867245257
  w: 0.8956264485806326
orientation_covariance: [0.01, 0.0, 0.0, 0.0, 0.01, 0.0, 0.0, 0.0, 0.01]
angular_velocity: 
  x: 3.4504876136779785
  y: 1.3741928339004517
  z: 2.647081136703491
angular_velocity_covariance: [0.01, 0.0, 0.0, 0.0, 0.01, 0.0, 0.0, 0.0, 0.01]
linear_acceleration: 
  x: -2.3626009983033165
  y: -1.9114240679323462
  z: 16.727666976483544
linear_acceleration_covariance: [0.01, 0.0, 0.0, 0.0, 0.01, 0.0, 0.0, 0.0, 0.01]
---
header: 
  seq: 285705
  stamp: 
    secs: 1717502392
    nsecs: 112403838
  frame_id: "imu_link"
orientation: 
  x: -0.007629890049695604
  y: -0.03476353050503694
  z: -0.4637404023051929
  w: 0.8852559635464042
orientation_covariance: [0.01, 0.0, 0.0, 0.0, 0.01, 0.0, 0.0, 0.0, 0.01]
angular_velocity: 
  x: 5.39853048324585
  y: 2.096998929977417
  z: 4.354302406311035
angular_velocity_covariance: [0.01, 0.0, 0.0, 0.0, 0.01, 0.0, 0.0, 0.0, 0.01]
linear_acceleration: 
  x: -0.9192814780483072
  y: -2.0727484598299144
  z: 16.145243872688944
linear_acceleration_covariance: [0.01, 0.0, 0.0, 0.0, 0.01, 0.0, 0.0, 0.0, 0.01]
---
header: 
  seq: 285706
  stamp: 
    secs: 1717502392
    nsecs: 122335084
  frame_id: "imu_link"
orientation: 
  x: 0.018754581856024865
  y: -0.05559283624638971
  z: -0.4867250276704753
  w: 0.8715827268003093
orientation_covariance: [0.01, 0.0, 0.0, 0.0, 0.01, 0.0, 0.0, 0.0, 0.01]
angular_velocity: 
  x: 6.270864009857178
  y: 2.892948627471924
  z: 5.122683525085449
angular_velocity_covariance: [0.01, 0.0, 0.0, 0.0, 0.01, 0.0, 0.0, 0.0, 0.01]
linear_acceleration: 
  x: 2.677914032218919
  y: 0.2700187513317913
  z: 14.553956057685378
linear_acceleration_covariance: [0.01, 0.0, 0.0, 0.0, 0.01, 0.0, 0.0, 0.0, 0.01]
---
header: 
  seq: 285707
  stamp: 
    secs: 1717502392
    nsecs: 132313309
  frame_id: "imu_link"
orientation: 
  x: 0.04669443216990086
  y: -0.0702073281677024
  z: -0.5053933542012021
  w: 0.8587596395995455
orientation_covariance: [0.01, 0.0, 0.0, 0.0, 0.01, 0.0, 0.0, 0.0, 0.01]
angular_velocity: 
  x: 5.332509994506836
  y: 3.744213104248047
  z: 4.242051124572754
angular_velocity_covariance: [0.01, 0.0, 0.0, 0.0, 0.01, 0.0, 0.0, 0.0, 0.01]
linear_acceleration: 
  x: 5.692320884173458
  y: 2.744674881681285
  z: 12.470045969459324
linear_acceleration_covariance: [0.01, 0.0, 0.0, 0.0, 0.01, 0.0, 0.0, 0.0, 0.01]
---
header: 
  seq: 285708
  stamp: 
    secs: 1717502392
    nsecs: 142309318
  frame_id: "imu_link"
orientation: 
  x: 0.07149346721036628
  y: -0.06986337267335478
  z: -0.5143533983625873
  w: 0.8517325724062702
orientation_covariance: [0.01, 0.0, 0.0, 0.0, 0.01, 0.0, 0.0, 0.0, 0.01]
angular_velocity: 
  x: 2.447154998779297
  y: 4.533956527709961
  z: 1.8887499570846558
angular_velocity_covariance: [0.01, 0.0, 0.0, 0.0, 0.01, 0.0, 0.0, 0.0, 0.01]
linear_acceleration: 
  x: 4.731748641917452
  y: 3.0718982343520573
  z: 8.630281404402808
linear_acceleration_covariance: [0.01, 0.0, 0.0, 0.0, 0.01, 0.0, 0.0, 0.0, 0.01]
---
header: 
  seq: 285709
  stamp: 
    secs: 1717502392
    nsecs: 152403479
  frame_id: "imu_link"
orientation: 
  x: 0.08578585930895678
  y: -0.056571857170666415
  z: -0.516208081439247
  w: 0.8502762068738001
orientation_covariance: [0.01, 0.0, 0.0, 0.0, 0.01, 0.0, 0.0, 0.0, 0.01]
angular_velocity: 
  x: -0.8463554978370667
  y: 3.9265503883361816
  z: 0.05783060938119888
angular_velocity_covariance: [0.01, 0.0, 0.0, 0.0, 0.01, 0.0, 0.0, 0.0, 0.01]
linear_acceleration: 
  x: 3.0567301193045195
  y: 2.4341875783964073
  z: 2.832920792660535
linear_acceleration_covariance: [0.01, 0.0, 0.0, 0.0, 0.01, 0.0, 0.0, 0.0, 0.01]
---
header: 
  seq: 285710
  stamp: 
    secs: 1717502392
    nsecs: 162334209
  frame_id: "imu_link"
orientation: 
  x: 0.08910246880287374
  y: -0.04023602426670629
  z: -0.5169293744112002
  w: 0.8504268541593022
orientation_covariance: [0.01, 0.0, 0.0, 0.0, 0.01, 0.0, 0.0, 0.0, 0.01]
angular_velocity: 
  x: -2.4709246158599854
  y: 2.321110725402832
  z: -0.22426804900169373
angular_velocity_covariance: [0.01, 0.0, 0.0, 0.0, 0.01, 0.0, 0.0, 0.0, 0.01]
linear_acceleration: 
  x: 3.5890975986254325
  y: 2.1983071894739963
  z: 5.629515375696
linear_acceleration_covariance: [0.01, 0.0, 0.0, 0.0, 0.01, 0.0, 0.0, 0.0, 0.01]
---
header: 
  seq: 285711
  stamp: 
    secs: 1717502392
    nsecs: 172366513
  frame_id: "imu_link"
orientation: 
  x: 0.08973644974755732
  y: -0.026696254307060022
  z: -0.5182613375540583
  w: 0.8500822698947175
orientation_covariance: [0.01, 0.0, 0.0, 0.0, 0.01, 0.0, 0.0, 0.0, 0.01]
angular_velocity: 
  x: -2.2623302936553955
  y: 1.5728850364685059
  z: 0.00796263013035059
angular_velocity_covariance: [0.01, 0.0, 0.0, 0.0, 0.01, 0.0, 0.0, 0.0, 0.01]
linear_acceleration: 
  x: 4.711827404819296
  y: 2.386544933402518
  z: 11.578766058828108
linear_acceleration_covariance: [0.01, 0.0, 0.0, 0.0, 0.01, 0.0, 0.0, 0.0, 0.01]
---
header: 
  seq: 285712
  stamp: 
    secs: 1717502392
    nsecs: 182350763
  frame_id: "imu_link"
orientation: 
  x: 0.08894851174430424
  y: -0.014644422284652205
  z: -0.5208347544825921
  w: 0.8488844807613579
orientation_covariance: [0.01, 0.0, 0.0, 0.0, 0.01, 0.0, 0.0, 0.0, 0.01]
angular_velocity: 
  x: -2.1671931743621826
  y: 1.1905227899551392
  z: 0.3448471128940582
angular_velocity_covariance: [0.01, 0.0, 0.0, 0.0, 0.01, 0.0, 0.0, 0.0, 0.01]
linear_acceleration: 
  x: 3.149026356077876
  y: 1.1770807533373013
  z: 10.951305542426494
linear_acceleration_covariance: [0.01, 0.0, 0.0, 0.0, 0.01, 0.0, 0.0, 0.0, 0.01]
---
header: 
  seq: 285713
  stamp: 
    secs: 1717502392
    nsecs: 192506477
  frame_id: "imu_link"
orientation: 
  x: 0.08595818825572626
  y: -0.005635117695891351
  z: -0.5253389174651276
  w: 0.8465213860954218
orientation_covariance: [0.01, 0.0, 0.0, 0.0, 0.01, 0.0, 0.0, 0.0, 0.01]
angular_velocity: 
  x: -1.9053139686584473
  y: 0.5242101550102234
  z: 0.8564212322235107
angular_velocity_covariance: [0.01, 0.0, 0.0, 0.0, 0.01, 0.0, 0.0, 0.0, 0.01]
linear_acceleration: 
  x: 3.13097376243758
  y: 0.3540403499193195
  z: 12.377408381027916
linear_acceleration_covariance: [0.01, 0.0, 0.0, 0.0, 0.01, 0.0, 0.0, 0.0, 0.01]
---
header: 
  seq: 285714
  stamp: 
    secs: 1717502392
    nsecs: 202593338
  frame_id: "imu_link"
orientation: 
  x: 0.08275402070049898
  y: 0.001684409245244908
  z: -0.532167395936169
  w: 0.8425834068659984
orientation_covariance: [0.01, 0.0, 0.0, 0.0, 0.01, 0.0, 0.0, 0.0, 0.01]
angular_velocity: 
  x: -1.6722205877304077
  y: 0.3414316177368164
  z: 1.4463204145431519
angular_velocity_covariance: [0.01, 0.0, 0.0, 0.0, 0.01, 0.0, 0.0, 0.0, 0.01]
linear_acceleration: 
  x: 3.46646262013945
  y: -0.8676379404602904
  z: 13.231161072187
linear_acceleration_covariance: [0.01, 0.0, 0.0, 0.0, 0.01, 0.0, 0.0, 0.0, 0.01]
---
header: 
  seq: 285715
  stamp: 
    secs: 1717502392
    nsecs: 212410921
  frame_id: "imu_link"
orientation: 
  x: 0.0807711200613436
  y: 0.00816948683301994
  z: -0.5410609492111306
  w: 0.8370557537510102
orientation_covariance: [0.01, 0.0, 0.0, 0.0, 0.01, 0.0, 0.0, 0.0, 0.01]
angular_velocity: 
  x: -1.4342910051345825
  y: 0.48545247316360474
  z: 1.9785139560699463
angular_velocity_covariance: [0.01, 0.0, 0.0, 0.0, 0.01, 0.0, 0.0, 0.0, 0.01]
linear_acceleration: 
  x: 3.6433976284312486
  y: -1.3248502878060395
  z: 13.180925067907387
linear_acceleration_covariance: [0.01, 0.0, 0.0, 0.0, 0.01, 0.0, 0.0, 0.0, 0.01]
---
header: 
  seq: 285716
  stamp: 
    secs: 1717502392
    nsecs: 222337554
  frame_id: "imu_link"
orientation: 
  x: 0.0808824698594065
  y: 0.013915503200293947
  z: -0.5513570616044494
  w: 0.8302227264168527
orientation_covariance: [0.01, 0.0, 0.0, 0.0, 0.01, 0.0, 0.0, 0.0, 0.01]
angular_velocity: 
  x: -1.1125119924545288
  y: 0.7800959944725037
  z: 2.3695123195648193
angular_velocity_covariance: [0.01, 0.0, 0.0, 0.0, 0.01, 0.0, 0.0, 0.0, 0.01]
linear_acceleration: 
  x: 4.310534395613079
  y: -0.9564205955266083
  z: 13.068416474728838
linear_acceleration_covariance: [0.01, 0.0, 0.0, 0.0, 0.01, 0.0, 0.0, 0.0, 0.01]
---
header: 
  seq: 285717
  stamp: 
    secs: 1717502392
    nsecs: 232323666
  frame_id: "imu_link"
orientation: 
  x: 0.0829671138688226
  y: 0.019113434379120595
  z: -0.5621096520409242
  w: 0.8226687509106831
orientation_covariance: [0.01, 0.0, 0.0, 0.0, 0.01, 0.0, 0.0, 0.0, 0.01]
angular_velocity: 
  x: -0.8261111974716187
  y: 1.0660574436187744
  z: 2.5370030403137207
angular_velocity_covariance: [0.01, 0.0, 0.0, 0.0, 0.01, 0.0, 0.0, 0.0, 0.01]
linear_acceleration: 
  x: 5.010200263340777
  y: 0.5980459357832814
  z: 11.902625898940508
linear_acceleration_covariance: [0.01, 0.0, 0.0, 0.0, 0.01, 0.0, 0.0, 0.0, 0.01]
---
header: 
  seq: 285718
  stamp: 
    secs: 1717502392
    nsecs: 242336199
  frame_id: "imu_link"
orientation: 
  x: 0.08589441232570416
  y: 0.02230169908365467
  z: -0.5713315876125369
  w: 0.8159074709459047
orientation_covariance: [0.01, 0.0, 0.0, 0.0, 0.01, 0.0, 0.0, 0.0, 0.01]
angular_velocity: 
  x: -0.39614933729171753
  y: 0.9743348956108093
  z: 2.22859787940979
angular_velocity_covariance: [0.01, 0.0, 0.0, 0.0, 0.01, 0.0, 0.0, 0.0, 0.01]
linear_acceleration: 
  x: 4.659732803552027
  y: 3.1013437535320407
  z: 9.956434650895586
linear_acceleration_covariance: [0.01, 0.0, 0.0, 0.0, 0.01, 0.0, 0.0, 0.0, 0.01]
---
header: 
  seq: 285719
  stamp: 
    secs: 1717502392
    nsecs: 252426191
  frame_id: "imu_link"
orientation: 
  x: 0.08929370757242054
  y: 0.024825376455276573
  z: -0.5797519389671463
  w: 0.8095048015519484
orientation_covariance: [0.01, 0.0, 0.0, 0.0, 0.01, 0.0, 0.0, 0.0, 0.01]
angular_velocity: 
  x: -0.20175613462924957
  y: 0.951305627822876
  z: 2.0743491649627686
angular_velocity_covariance: [0.01, 0.0, 0.0, 0.0, 0.01, 0.0, 0.0, 0.0, 0.01]
linear_acceleration: 
  x: 2.0299511817494205
  y: 1.196601958258261
  z: 10.242672286726659
linear_acceleration_covariance: [0.01, 0.0, 0.0, 0.0, 0.01, 0.0, 0.0, 0.0, 0.01]
---
header: 
  seq: 285720
  stamp: 
    secs: 1717502392
    nsecs: 262366618
  frame_id: "imu_link"
orientation: 
  x: 0.09315489953605764
  y: 0.02834155229530922
  z: -0.5871456258627169
  w: 0.8036037177217371
orientation_covariance: [0.01, 0.0, 0.0, 0.0, 0.01, 0.0, 0.0, 0.0, 0.01]
angular_velocity: 
  x: -0.31186628341674805
  y: 1.14129638671875
  z: 1.8298736810684204
angular_velocity_covariance: [0.01, 0.0, 0.0, 0.0, 0.01, 0.0, 0.0, 0.0, 0.01]
linear_acceleration: 
  x: 2.647880109545423
  y: 4.082178127886518
  z: 10.704140455847952
linear_acceleration_covariance: [0.01, 0.0, 0.0, 0.0, 0.01, 0.0, 0.0, 0.0, 0.01]
---
header: 
  seq: 285721
  stamp: 
    secs: 1717502392
    nsecs: 272386945
  frame_id: "imu_link"
orientation: 
  x: 0.0987326990819994
  y: 0.034981728903072024
  z: -0.5927475885736577
  w: 0.7985476998996673
orientation_covariance: [0.01, 0.0, 0.0, 0.0, 0.01, 0.0, 0.0, 0.0, 0.01]
angular_velocity: 
  x: -0.5448895692825317
  y: 1.7661843299865723
  z: 1.400329828262329
angular_velocity_covariance: [0.01, 0.0, 0.0, 0.0, 0.01, 0.0, 0.0, 0.0, 0.01]
linear_acceleration: 
  x: 1.1846056736841901
  y: 0.7992527023468887
  z: 12.809920796391646
linear_acceleration_covariance: [0.01, 0.0, 0.0, 0.0, 0.01, 0.0, 0.0, 0.0, 0.01]
---
header: 
  seq: 285722
  stamp: 
    secs: 1717502392
    nsecs: 282372307
  frame_id: "imu_link"
orientation: 
  x: 0.10542975559235006
  y: 0.04459791683592144
  z: -0.597752004700489
  w: 0.7934658992837564
orientation_covariance: [0.01, 0.0, 0.0, 0.0, 0.01, 0.0, 0.0, 0.0, 0.01]
angular_velocity: 
  x: -0.8770265579223633
  y: 2.2954423427581787
  z: 1.2573198080062866
angular_velocity_covariance: [0.01, 0.0, 0.0, 0.0, 0.01, 0.0, 0.0, 0.0, 0.01]
linear_acceleration: 
  x: 0.0360555864016006
  y: 0.733539083238808
  z: 11.024028286968058
linear_acceleration_covariance: [0.01, 0.0, 0.0, 0.0, 0.01, 0.0, 0.0, 0.0, 0.01]
---
header: 
  seq: 285723
  stamp: 
    secs: 1717502392
    nsecs: 292420556
  frame_id: "imu_link"
orientation: 
  x: 0.11338036764575816
  y: 0.05424369365801859
  z: -0.6015727992411076
  w: 0.7888679744697878
orientation_covariance: [0.01, 0.0, 0.0, 0.0, 0.01, 0.0, 0.0, 0.0, 0.01]
angular_velocity: 
  x: -0.7270339131355286
  y: 2.5110371112823486
  z: 1.0157383680343628
angular_velocity_covariance: [0.01, 0.0, 0.0, 0.0, 0.01, 0.0, 0.0, 0.0, 0.01]
linear_acceleration: 
  x: 1.1455874667023067
  y: 3.0442973840987655
  z: 9.356513335952833
linear_acceleration_covariance: [0.01, 0.0, 0.0, 0.0, 0.01, 0.0, 0.0, 0.0, 0.01]
---
header: 
  seq: 285724
  stamp: 
    secs: 1717502392
    nsecs: 302368502
  frame_id: "imu_link"
orientation: 
  x: 0.12279728008687306
  y: 0.06280181391102119
  z: -0.6037779180551843
  w: 0.7851299165371924
orientation_covariance: [0.01, 0.0, 0.0, 0.0, 0.01, 0.0, 0.0, 0.0, 0.01]
angular_velocity: 
  x: -0.32567155361175537
  y: 2.6038570404052734
  z: 0.6996054649353027
angular_velocity_covariance: [0.01, 0.0, 0.0, 0.0, 0.01, 0.0, 0.0, 0.0, 0.01]
linear_acceleration: 
  x: 0.3159668536298717
  y: 2.0767554031390505
  z: 8.502613601002587
linear_acceleration_covariance: [0.01, 0.0, 0.0, 0.0, 0.01, 0.0, 0.0, 0.0, 0.01]
---
header: 
  seq: 285725
  stamp: 
    secs: 1717502392
    nsecs: 317326492
  frame_id: "imu_link"
orientation: 
  x: 0.13206030896874577
  y: 0.07029209764029949
  z: -0.605643372238818
  w: 0.7815466726098951
orientation_covariance: [0.01, 0.0, 0.0, 0.0, 0.01, 0.0, 0.0, 0.0, 0.01]
angular_velocity: 
  x: -0.15185968577861786
  y: 2.4433603286743164
  z: 0.6559997200965881
angular_velocity_covariance: [0.01, 0.0, 0.0, 0.0, 0.01, 0.0, 0.0, 0.0, 0.01]
linear_acceleration: 
  x: -0.5661880650278889
  y: 0.6726921797933054
  z: 7.586465480013444
linear_acceleration_covariance: [0.01, 0.0, 0.0, 0.0, 0.01, 0.0, 0.0, 0.0, 0.01]
---
header: 
  seq: 285726
  stamp: 
    secs: 1717502392
    nsecs: 322342459
  frame_id: "imu_link"
orientation: 
  x: 0.14013072540094196
  y: 0.07767486255584005
  z: -0.6076714987049715
  w: 0.777859463648281
orientation_covariance: [0.01, 0.0, 0.0, 0.0, 0.01, 0.0, 0.0, 0.0, 0.01]
angular_velocity: 
  x: -0.29567813873291016
  y: 2.2542788982391357
  z: 0.6761837601661682
angular_velocity_covariance: [0.01, 0.0, 0.0, 0.0, 0.01, 0.0, 0.0, 0.0, 0.01]
linear_acceleration: 
  x: 0.1492006712738982
  y: 1.6453395371651498
  z: 7.861253336416631
linear_acceleration_covariance: [0.01, 0.0, 0.0, 0.0, 0.01, 0.0, 0.0, 0.0, 0.01]
---
header: 
  seq: 285727
  stamp: 
    secs: 1717502392
    nsecs: 332396832
  frame_id: "imu_link"
orientation: 
  x: 0.1488527958745218
  y: 0.08879241992227065
  z: -0.6092937758628623
  w: 0.7737698921639825
orientation_covariance: [0.01, 0.0, 0.0, 0.0, 0.01, 0.0, 0.0, 0.0, 0.01]
angular_velocity: 
  x: -0.8070728778839111
  y: 2.8334550857543945
  z: 0.5617528557777405
angular_velocity_covariance: [0.01, 0.0, 0.0, 0.0, 0.01, 0.0, 0.0, 0.0, 0.01]
linear_acceleration: 
  x: 0.483204049899962
  y: 2.9187395677701566
  z: 8.053206676018387
linear_acceleration_covariance: [0.01, 0.0, 0.0, 0.0, 0.01, 0.0, 0.0, 0.0, 0.01]
---
header: 
  seq: 285728
  stamp: 
    secs: 1717502392
    nsecs: 342346775
  frame_id: "imu_link"
orientation: 
  x: 0.15993116937645166
  y: 0.1003781483778548
  z: -0.6109991197158702
  w: 0.7687823645847671
orientation_covariance: [0.01, 0.0, 0.0, 0.0, 0.01, 0.0, 0.0, 0.0, 0.01]
angular_velocity: 
  x: -0.6212980151176453
  y: 3.2505300045013428
  z: 0.7085121273994446
angular_velocity_covariance: [0.01, 0.0, 0.0, 0.0, 0.01, 0.0, 0.0, 0.0, 0.01]
linear_acceleration: 
  x: -2.161858367246669
  y: 3.8298813499937783
  z: 7.338044128001723
linear_acceleration_covariance: [0.01, 0.0, 0.0, 0.0, 0.01, 0.0, 0.0, 0.0, 0.01]
---
header: 
  seq: 285729
  stamp: 
    secs: 1717502392
    nsecs: 352416289
  frame_id: "imu_link"
orientation: 
  x: 0.17291478258607992
  y: 0.11174688301399198
  z: -0.6119547994255902
  w: 0.7636258478861567
orientation_covariance: [0.01, 0.0, 0.0, 0.0, 0.01, 0.0, 0.0, 0.0, 0.01]
angular_velocity: 
  x: -0.33734652400016785
  y: 3.518462896347046
  z: 0.6572421193122864
angular_velocity_covariance: [0.01, 0.0, 0.0, 0.0, 0.01, 0.0, 0.0, 0.0, 0.01]
linear_acceleration: 
  x: -4.510049530673947
  y: 4.810367294495287
  z: 7.805919205166456
linear_acceleration_covariance: [0.01, 0.0, 0.0, 0.0, 0.01, 0.0, 0.0, 0.0, 0.01]
---
header: 
  seq: 285730
  stamp: 
    secs: 1717502392
    nsecs: 362338948
  frame_id: "imu_link"
orientation: 
  x: 0.1863172601677136
  y: 0.12331909911047113
  z: -0.6108795902866697
  w: 0.7595422335389711
orientation_covariance: [0.01, 0.0, 0.0, 0.0, 0.01, 0.0, 0.0, 0.0, 0.01]
angular_velocity: 
  x: -0.22522760927677155
  y: 3.611011028289795
  z: 0.21543708443641663
angular_velocity_covariance: [0.01, 0.0, 0.0, 0.0, 0.01, 0.0, 0.0, 0.0, 0.01]
linear_acceleration: 
  x: -5.416621995585903
  y: 5.40836105713217
  z: 7.7513924447944555
linear_acceleration_covariance: [0.01, 0.0, 0.0, 0.0, 0.01, 0.0, 0.0, 0.0, 0.01]
---
header: 
  seq: 285731
  stamp: 
    secs: 1717502392
    nsecs: 372399034
  frame_id: "imu_link"
orientation: 
  x: 0.19845920336642958
  y: 0.1342394385970332
  z: -0.607871539297117
  w: 0.7570243783636487
orientation_covariance: [0.01, 0.0, 0.0, 0.0, 0.01, 0.0, 0.0, 0.0, 0.01]
angular_velocity: 
  x: -0.17051026225090027
  y: 3.3371074199676514
  z: -0.2790278196334839
angular_velocity_covariance: [0.01, 0.0, 0.0, 0.0, 0.01, 0.0, 0.0, 0.0, 0.01]
linear_acceleration: 
  x: -4.71417371226956
  y: 5.348899653259284
  z: 7.515707733712146
linear_acceleration_covariance: [0.01, 0.0, 0.0, 0.0, 0.01, 0.0, 0.0, 0.0, 0.01]
---
header: 
  seq: 285732
  stamp: 
    secs: 1717502392
    nsecs: 382356745
  frame_id: "imu_link"
orientation: 
  x: 0.20837518109729128
  y: 0.1430203158828718
  z: -0.6034442545356791
  w: 0.7562935969683421
orientation_covariance: [0.01, 0.0, 0.0, 0.0, 0.01, 0.0, 0.0, 0.0, 0.01]
angular_velocity: 
  x: -0.0061510661616921425
  y: 2.7330946922302246
  z: -0.6852277517318726
angular_velocity_covariance: [0.01, 0.0, 0.0, 0.0, 0.01, 0.0, 0.0, 0.0, 0.01]
linear_acceleration: 
  x: -2.413077204552342
  y: 4.149588116321353
  z: 7.699326156306851
linear_acceleration_covariance: [0.01, 0.0, 0.0, 0.0, 0.01, 0.0, 0.0, 0.0, 0.01]
---
header: 
  seq: 285733
  stamp: 
    secs: 1717502392
    nsecs: 392500166
  frame_id: "imu_link"
orientation: 
  x: 0.21379022942166023
  y: 0.14944912217928663
  z: -0.5984221955325291
  w: 0.7575285958811734
orientation_covariance: [0.01, 0.0, 0.0, 0.0, 0.01, 0.0, 0.0, 0.0, 0.01]
angular_velocity: 
  x: -0.10665111988782883
  y: 1.6850696802139282
  z: -1.0401194095611572
angular_velocity_covariance: [0.01, 0.0, 0.0, 0.0, 0.01, 0.0, 0.0, 0.0, 0.01]
linear_acceleration: 
  x: -2.7315277054467377
  y: 2.5660102822123996
  z: 5.054977381037974
linear_acceleration_covariance: [0.01, 0.0, 0.0, 0.0, 0.01, 0.0, 0.0, 0.0, 0.01]
---
header: 
  seq: 285734
  stamp: 
    secs: 1717502392
    nsecs: 402516455
  frame_id: "imu_link"
orientation: 
  x: 0.21289136060916491
  y: 0.14967789762780606
  z: -0.5937426511687768
  w: 0.7614088650145668
orientation_covariance: [0.01, 0.0, 0.0, 0.0, 0.01, 0.0, 0.0, 0.0, 0.01]
angular_velocity: 
  x: 0.15607959032058716
  y: -0.18057116866111755
  z: -1.2189228534698486
angular_velocity_covariance: [0.01, 0.0, 0.0, 0.0, 0.01, 0.0, 0.0, 0.0, 0.01]
linear_acceleration: 
  x: -4.0505303767721434
  y: 1.0889695563903259
  z: 2.6324672259511086
linear_acceleration_covariance: [0.01, 0.0, 0.0, 0.0, 0.01, 0.0, 0.0, 0.0, 0.01]
---
header: 
  seq: 285735
  stamp: 
    secs: 1717502392
    nsecs: 417420888
  frame_id: "imu_link"
orientation: 
  x: 0.20606351631354458
  y: 0.1445654894629256
  z: -0.5884658355678667
  w: 0.7683401635149986
orientation_covariance: [0.01, 0.0, 0.0, 0.0, 0.01, 0.0, 0.0, 0.0, 0.01]
angular_velocity: 
  x: 0.39879080653190613
  y: -1.805100440979004
  z: -1.613493800163269
angular_velocity_covariance: [0.01, 0.0, 0.0, 0.0, 0.01, 0.0, 0.0, 0.0, 0.01]
linear_acceleration: 
  x: -3.2021345091913624
  y: 0.17294865739246798
  z: 3.53242546020724
linear_acceleration_covariance: [0.01, 0.0, 0.0, 0.0, 0.01, 0.0, 0.0, 0.0, 0.01]
---
header: 
  seq: 285736
  stamp: 
    secs: 1717502392
    nsecs: 422336186
  frame_id: "imu_link"
orientation: 
  x: 0.19508539038719552
  y: 0.13751017810049382
  z: -0.5830792258934673
  w: 0.7765637499315307
orientation_covariance: [0.01, 0.0, 0.0, 0.0, 0.01, 0.0, 0.0, 0.0, 0.01]
angular_velocity: 
  x: 0.2615973949432373
  y: -2.7146217823028564
  z: -1.8168381452560425
angular_velocity_covariance: [0.01, 0.0, 0.0, 0.0, 0.01, 0.0, 0.0, 0.0, 0.01]
linear_acceleration: 
  x: -3.1382412419855035
  y: -0.4811250013899989
  z: 4.219205131596814
linear_acceleration_covariance: [0.01, 0.0, 0.0, 0.0, 0.01, 0.0, 0.0, 0.0, 0.01]
---
header: 
  seq: 285737
  stamp: 
    secs: 1717502392
    nsecs: 432386312
  frame_id: "imu_link"
orientation: 
  x: 0.1833624414231423
  y: 0.13007383851092144
  z: -0.5780077795651097
  w: 0.7844526871472819
orientation_covariance: [0.01, 0.0, 0.0, 0.0, 0.01, 0.0, 0.0, 0.0, 0.01]
angular_velocity: 
  x: 0.21339653432369232
  y: -2.906062364578247
  z: -1.7339738607406616
angular_velocity_covariance: [0.01, 0.0, 0.0, 0.0, 0.01, 0.0, 0.0, 0.0, 0.01]
linear_acceleration: 
  x: -3.954282908933507
  y: -0.6119012740027444
  z: 3.0790650208690766
linear_acceleration_covariance: [0.01, 0.0, 0.0, 0.0, 0.01, 0.0, 0.0, 0.0, 0.01]
---
header: 
  seq: 285738
  stamp: 
    secs: 1717502392
    nsecs: 442285071
  frame_id: "imu_link"
orientation: 
  x: 0.17396788246832717
  y: 0.12201535423521594
  z: -0.5725831801425735
  w: 0.7918307464465865
orientation_covariance: [0.01, 0.0, 0.0, 0.0, 0.01, 0.0, 0.0, 0.0, 0.01]
angular_velocity: 
  x: 0.5686800479888916
  y: -2.5557849407196045
  z: -1.6529914140701294
angular_velocity_covariance: [0.01, 0.0, 0.0, 0.0, 0.01, 0.0, 0.0, 0.0, 0.01]
linear_acceleration: 
  x: -4.172212310561999
  y: 0.1321948227890425
  z: 5.40078967186059
linear_acceleration_covariance: [0.01, 0.0, 0.0, 0.0, 0.01, 0.0, 0.0, 0.0, 0.01]
---
header: 
  seq: 285739
  stamp: 
    secs: 1717502392
    nsecs: 452364739
  frame_id: "imu_link"
orientation: 
  x: 0.16758428218286184
  y: 0.11543294057108758
  z: -0.5672426585748419
  w: 0.798014104442592
orientation_covariance: [0.01, 0.0, 0.0, 0.0, 0.01, 0.0, 0.0, 0.0, 0.01]
angular_velocity: 
  x: 0.6466131210327148
  y: -1.8695592880249023
  z: -1.4811885356903076
angular_velocity_covariance: [0.01, 0.0, 0.0, 0.0, 0.01, 0.0, 0.0, 0.0, 0.01]
linear_acceleration: 
  x: -4.939727471467069
  y: 0.1880690231654301
  z: 6.807728411891015
linear_acceleration_covariance: [0.01, 0.0, 0.0, 0.0, 0.01, 0.0, 0.0, 0.0, 0.01]
---
header: 
  seq: 285740
  stamp: 
    secs: 1717502392
    nsecs: 462361667
  frame_id: "imu_link"
orientation: 
  x: 0.16397722283444952
  y: 0.10990523130262093
  z: -0.5614402640437876
  w: 0.8036274886004466
orientation_covariance: [0.01, 0.0, 0.0, 0.0, 0.01, 0.0, 0.0, 0.0, 0.01]
angular_velocity: 
  x: 0.7972872257232666
  y: -1.2852730751037598
  z: -1.4606574773788452
angular_velocity_covariance: [0.01, 0.0, 0.0, 0.0, 0.01, 0.0, 0.0, 0.0, 0.01]
linear_acceleration: 
  x: -5.3806190996382925
  y: 0.04449129276579516
  z: 6.49275330470044
linear_acceleration_covariance: [0.01, 0.0, 0.0, 0.0, 0.01, 0.0, 0.0, 0.0, 0.01]
---
header: 
  seq: 285741
  stamp: 
    secs: 1717502392
    nsecs: 472403660
  frame_id: "imu_link"
orientation: 
  x: 0.16196611685042664
  y: 0.10540745106557352
  z: -0.5543999153798771
  w: 0.8095041569251128
orientation_covariance: [0.01, 0.0, 0.0, 0.0, 0.01, 0.0, 0.0, 0.0, 0.01]
angular_velocity: 
  x: 0.8567801117897034
  y: -0.8933976292610168
  z: -1.6880769729614258
angular_velocity_covariance: [0.01, 0.0, 0.0, 0.0, 0.01, 0.0, 0.0, 0.0, 0.01]
linear_acceleration: 
  x: -5.217369895381273
  y: 0.11143402757756361
  z: 6.6027502803281015
linear_acceleration_covariance: [0.01, 0.0, 0.0, 0.0, 0.01, 0.0, 0.0, 0.0, 0.01]
---
header: 
  seq: 285742
  stamp: 
    secs: 1717502392
    nsecs: 482364506
  frame_id: "imu_link"
orientation: 
  x: 0.15929616874276706
  y: 0.10031825216997439
  z: -0.545901347589323
  w: 0.8164267864331735
orientation_covariance: [0.01, 0.0, 0.0, 0.0, 0.01, 0.0, 0.0, 0.0, 0.01]
angular_velocity: 
  x: 0.954086422920227
  y: -1.074700117111206
  z: -2.032662868499756
angular_velocity_covariance: [0.01, 0.0, 0.0, 0.0, 0.01, 0.0, 0.0, 0.0, 0.01]
linear_acceleration: 
  x: -4.488068310526329
  y: -0.27008861996547956
  z: 5.157635866839682
linear_acceleration_covariance: [0.01, 0.0, 0.0, 0.0, 0.01, 0.0, 0.0, 0.0, 0.01]
---
header: 
  seq: 285743
  stamp: 
    secs: 1717502392
    nsecs: 492422295
  frame_id: "imu_link"
orientation: 
  x: 0.15298698602042687
  y: 0.09241371432988987
  z: -0.5356119301371275
  w: 0.8253329920746657
orientation_covariance: [0.01, 0.0, 0.0, 0.0, 0.01, 0.0, 0.0, 0.0, 0.01]
angular_velocity: 
  x: 1.1263736486434937
  y: -1.9911226034164429
  z: -2.5201852321624756
angular_velocity_covariance: [0.01, 0.0, 0.0, 0.0, 0.01, 0.0, 0.0, 0.0, 0.01]
linear_acceleration: 
  x: -3.3102171755875105
  y: -1.2418426977224646
  z: 5.0690830818614865
linear_acceleration_covariance: [0.01, 0.0, 0.0, 0.0, 0.01, 0.0, 0.0, 0.0, 0.01]
---
header: 
  seq: 285744
  stamp: 
    secs: 1717502392
    nsecs: 502434143
  frame_id: "imu_link"
orientation: 
  x: 0.13973640737893495
  y: 0.08331972929375249
  z: -0.5256344374324667
  w: 0.835008980399791
orientation_covariance: [0.01, 0.0, 0.0, 0.0, 0.01, 0.0, 0.0, 0.0, 0.01]
angular_velocity: 
  x: 0.6096271276473999
  y: -3.2675564289093018
  z: -2.6347384452819824
angular_velocity_covariance: [0.01, 0.0, 0.0, 0.0, 0.01, 0.0, 0.0, 0.0, 0.01]
linear_acceleration: 
  x: -0.817101854965563
  y: -2.249551722364725
  z: 4.523455175187368
linear_acceleration_covariance: [0.01, 0.0, 0.0, 0.0, 0.01, 0.0, 0.0, 0.0, 0.01]
---
header: 
  seq: 285745
  stamp: 
    secs: 1717502392
    nsecs: 512447302
  frame_id: "imu_link"
orientation: 
  x: 0.11954124388827239
  y: 0.07753975100374881
  z: -0.5169092020644945
  w: 0.8440985456953286
orientation_covariance: [0.01, 0.0, 0.0, 0.0, 0.01, 0.0, 0.0, 0.0, 0.01]
angular_velocity: 
  x: -0.7383022308349609
  y: -4.093597888946533
  z: -2.5802814960479736
angular_velocity_covariance: [0.01, 0.0, 0.0, 0.0, 0.01, 0.0, 0.0, 0.0, 0.01]
linear_acceleration: 
  x: -1.5228587948296788
  y: -2.0938590620028483
  z: 6.755623307495806
linear_acceleration_covariance: [0.01, 0.0, 0.0, 0.0, 0.01, 0.0, 0.0, 0.0, 0.01]
---
header: 
  seq: 285746
  stamp: 
    secs: 1717502392
    nsecs: 522423917
  frame_id: "imu_link"
orientation: 
  x: 0.09670604681267365
  y: 0.07700076943327037
  z: -0.5093829628980134
  w: 0.8516148302641227
orientation_covariance: [0.01, 0.0, 0.0, 0.0, 0.01, 0.0, 0.0, 0.0, 0.01]
angular_velocity: 
  x: -1.950853705406189
  y: -3.983557939529419
  z: -2.383145332336426
angular_velocity_covariance: [0.01, 0.0, 0.0, 0.0, 0.01, 0.0, 0.0, 0.0, 0.01]
linear_acceleration: 
  x: -2.889369853774436
  y: -1.9255119591041348
  z: 7.2157726490740135
linear_acceleration_covariance: [0.01, 0.0, 0.0, 0.0, 0.01, 0.0, 0.0, 0.0, 0.01]
---
header: 
  seq: 285747
  stamp: 
    secs: 1717502392
    nsecs: 532410185
  frame_id: "imu_link"
orientation: 
  x: 0.07608425057082019
  y: 0.07766992095528144
  z: -0.502101786607609
  w: 0.8579465986174921
orientation_covariance: [0.01, 0.0, 0.0, 0.0, 0.01, 0.0, 0.0, 0.0, 0.01]
angular_velocity: 
  x: -1.948949933052063
  y: -3.5039772987365723
  z: -2.2117578983306885
angular_velocity_covariance: [0.01, 0.0, 0.0, 0.0, 0.01, 0.0, 0.0, 0.0, 0.01]
linear_acceleration: 
  x: -4.870292205970746
  y: -2.14314521819049
  z: 5.16330070606127
linear_acceleration_covariance: [0.01, 0.0, 0.0, 0.0, 0.01, 0.0, 0.0, 0.0, 0.01]
---
header: 
  seq: 285748
  stamp: 
    secs: 1717502392
    nsecs: 542339636
  frame_id: "imu_link"
orientation: 
  x: 0.0606323868428394
  y: 0.07520489277347961
  z: -0.4946344846272446
  w: 0.8637156154581264
orientation_covariance: [0.01, 0.0, 0.0, 0.0, 0.01, 0.0, 0.0, 0.0, 0.01]
angular_velocity: 
  x: -0.8970049619674683
  y: -2.920849323272705
  z: -2.0608484745025635
angular_velocity_covariance: [0.01, 0.0, 0.0, 0.0, 0.01, 0.0, 0.0, 0.0, 0.01]
linear_acceleration: 
  x: -5.244413166538268
  y: -2.6811311859727356
  z: 5.942363827807578
linear_acceleration_covariance: [0.01, 0.0, 0.0, 0.0, 0.01, 0.0, 0.0, 0.0, 0.01]
---
header: 
  seq: 285749
  stamp: 
    secs: 1717502392
    nsecs: 552415337
  frame_id: "imu_link"
orientation: 
  x: 0.050150427117873625
  y: 0.07099971336944064
  z: -0.4876755537129115
  w: 0.8686866694454091
orientation_covariance: [0.01, 0.0, 0.0, 0.0, 0.01, 0.0, 0.0, 0.0, 0.01]
angular_velocity: 
  x: -0.12123728543519974
  y: -2.2149837017059326
  z: -1.7978497743606567
angular_velocity_covariance: [0.01, 0.0, 0.0, 0.0, 0.01, 0.0, 0.0, 0.0, 0.01]
linear_acceleration: 
  x: -4.449343277811295
  y: -3.3303121709544135
  z: 7.685039162361938
linear_acceleration_covariance: [0.01, 0.0, 0.0, 0.0, 0.01, 0.0, 0.0, 0.0, 0.01]
---
header: 
  seq: 285750
  stamp: 
    secs: 1717502392
    nsecs: 562311529
  frame_id: "imu_link"
orientation: 
  x: 0.04273946342095075
  y: 0.06818748737972777
  z: -0.4819548236502977
  w: 0.8724926090182881
orientation_covariance: [0.01, 0.0, 0.0, 0.0, 0.01, 0.0, 0.0, 0.0, 0.01]
angular_velocity: 
  x: -0.09606748819351196
  y: -1.538947582244873
  z: -1.4396766424179077
angular_velocity_covariance: [0.01, 0.0, 0.0, 0.0, 0.01, 0.0, 0.0, 0.0, 0.01]
linear_acceleration: 
  x: -3.603561547443249
  y: -3.511643651604603
  z: 9.350452574473676
linear_acceleration_covariance: [0.01, 0.0, 0.0, 0.0, 0.01, 0.0, 0.0, 0.0, 0.01]
---
header: 
  seq: 285751
  stamp: 
    secs: 1717502392
    nsecs: 572399149
  frame_id: "imu_link"
orientation: 
  x: 0.0349077374120982
  y: 0.06558768904923579
  z: -0.47753759965794207
  w: 0.8754641887746636
orientation_covariance: [0.01, 0.0, 0.0, 0.0, 0.01, 0.0, 0.0, 0.0, 0.01]
angular_velocity: 
  x: -0.19829080998897552
  y: -1.6113680601119995
  z: -1.1408600807189941
angular_velocity_covariance: [0.01, 0.0, 0.0, 0.0, 0.01, 0.0, 0.0, 0.0, 0.01]
linear_acceleration: 
  x: -4.050806654702741
  y: -3.064096008594664
  z: 8.48351252119923
linear_acceleration_covariance: [0.01, 0.0, 0.0, 0.0, 0.01, 0.0, 0.0, 0.0, 0.01]
---
header: 
  seq: 285752
  stamp: 
    secs: 1717502392
    nsecs: 582333620
  frame_id: "imu_link"
orientation: 
  x: 0.026706032253417243
  y: 0.0618686919853312
  z: -0.4728387530696881
  w: 0.878568475640235
orientation_covariance: [0.01, 0.0, 0.0, 0.0, 0.01, 0.0, 0.0, 0.0, 0.01]
angular_velocity: 
  x: -0.04196639358997345
  y: -1.7903072834014893
  z: -1.2021812200546265
angular_velocity_covariance: [0.01, 0.0, 0.0, 0.0, 0.01, 0.0, 0.0, 0.0, 0.01]
linear_acceleration: 
  x: -4.774911474516033
  y: -2.2516813457190077
  z: 8.237110053040684
linear_acceleration_covariance: [0.01, 0.0, 0.0, 0.0, 0.01, 0.0, 0.0, 0.0, 0.01]
---
header: 
  seq: 285753
  stamp: 
    secs: 1717502392
    nsecs: 592415942
  frame_id: "imu_link"
orientation: 
  x: 0.016951084046051473
  y: 0.05613090671955327
  z: -0.46764715276837127
  w: 0.8819683228824832
orientation_covariance: [0.01, 0.0, 0.0, 0.0, 0.01, 0.0, 0.0, 0.0, 0.01]
angular_velocity: 
  x: 0.1749533712863922
  y: -2.2464053630828857
  z: -1.325016736984253
angular_velocity_covariance: [0.01, 0.0, 0.0, 0.0, 0.01, 0.0, 0.0, 0.0, 0.01]
linear_acceleration: 
  x: -4.203701601441799
  y: -2.475157768873066
  z: 8.1289031757402
linear_acceleration_covariance: [0.01, 0.0, 0.0, 0.0, 0.01, 0.0, 0.0, 0.0, 0.01]
---
header: 
  seq: 285754
  stamp: 
    secs: 1717502392
    nsecs: 602479355
  frame_id: "imu_link"
orientation: 
  x: 0.006419986671849483
  y: 0.05085071206268735
  z: -0.46393814831355285
  w: 0.8843836177775134
orientation_covariance: [0.01, 0.0, 0.0, 0.0, 0.01, 0.0, 0.0, 0.0, 0.01]
angular_velocity: 
  x: 0.006812558509409428
  y: -2.332731008529663
  z: -0.980271577835083
angular_velocity_covariance: [0.01, 0.0, 0.0, 0.0, 0.01, 0.0, 0.0, 0.0, 0.01]
linear_acceleration: 
  x: -2.2622858516765856
  y: -2.872163903577657
  z: 9.448349946714378
linear_acceleration_covariance: [0.01, 0.0, 0.0, 0.0, 0.01, 0.0, 0.0, 0.0, 0.01]
---
header: 
  seq: 285755
  stamp: 
    secs: 1717502392
    nsecs: 612345791
  frame_id: "imu_link"
orientation: 
  x: -0.003931826852965192
  y: 0.04639709522497513
  z: -0.46239472332010423
  w: 0.8854507158154017
orientation_covariance: [0.01, 0.0, 0.0, 0.0, 0.01, 0.0, 0.0, 0.0, 0.01]
angular_velocity: 
  x: -0.13905876874923706
  y: -2.2576417922973633
  z: -0.4729893207550049
angular_velocity_covariance: [0.01, 0.0, 0.0, 0.0, 0.01, 0.0, 0.0, 0.0, 0.01]
linear_acceleration: 
  x: -3.016387604886715
  y: -2.611996401267046
  z: 8.359057761633197
linear_acceleration_covariance: [0.01, 0.0, 0.0, 0.0, 0.01, 0.0, 0.0, 0.0, 0.01]
---
header: 
  seq: 285756
  stamp: 
    secs: 1717502392
    nsecs: 622340401
  frame_id: "imu_link"
orientation: 
  x: -0.012920745538493681
  y: 0.04086889935117917
  z: -0.4611738352363816
  w: 0.8862739311826335
orientation_covariance: [0.01, 0.0, 0.0, 0.0, 0.01, 0.0, 0.0, 0.0, 0.01]
angular_velocity: 
  x: 0.16439108550548553
  y: -2.131971836090088
  z: -0.383338063955307
angular_velocity_covariance: [0.01, 0.0, 0.0, 0.0, 0.01, 0.0, 0.0, 0.0, 0.01]
linear_acceleration: 
  x: -3.9335794171326848
  y: -1.5724219139345232
  z: 8.145222296612648
linear_acceleration_covariance: [0.01, 0.0, 0.0, 0.0, 0.01, 0.0, 0.0, 0.0, 0.01]
---
header: 
  seq: 285757
  stamp: 
    secs: 1717502392
    nsecs: 637413518
  frame_id: "imu_link"
orientation: 
  x: -0.01942710258752598
  y: 0.03605416949809912
  z: -0.46044240000667763
  w: 0.886744315359815
orientation_covariance: [0.01, 0.0, 0.0, 0.0, 0.01, 0.0, 0.0, 0.0, 0.01]
angular_velocity: 
  x: 0.26175740361213684
  y: -1.611104965209961
  z: -0.24035324156284332
angular_velocity_covariance: [0.01, 0.0, 0.0, 0.0, 0.01, 0.0, 0.0, 0.0, 0.01]
linear_acceleration: 
  x: -2.230658421831487
  y: -1.4488747616198325
  z: 9.614080172453935
linear_acceleration_covariance: [0.01, 0.0, 0.0, 0.0, 0.01, 0.0, 0.0, 0.0, 0.01]
---
header: 
  seq: 285758
  stamp: 
    secs: 1717502392
    nsecs: 642353013
  frame_id: "imu_link"
orientation: 
  x: -0.025245095560197467
  y: 0.032140981529433586
  z: -0.461412235599904
  w: 0.8862439795537004
orientation_covariance: [0.01, 0.0, 0.0, 0.0, 0.01, 0.0, 0.0, 0.0, 0.01]
angular_velocity: 
  x: 0.1637524962425232
  y: -1.4105918407440186
  z: 0.16012276709079742
angular_velocity_covariance: [0.01, 0.0, 0.0, 0.0, 0.01, 0.0, 0.0, 0.0, 0.01]
linear_acceleration: 
  x: -0.7949610900212462
  y: -1.1322597964973982
  z: 8.206014401129769
linear_acceleration_covariance: [0.01, 0.0, 0.0, 0.0, 0.01, 0.0, 0.0, 0.0, 0.01]
---
header: 
  seq: 285759
  stamp: 
    secs: 1717502392
    nsecs: 652425608
  frame_id: "imu_link"
orientation: 
  x: -0.031788489512708434
  y: 0.028475550642721077
  z: -0.4629257060200396
  w: 0.8853690900725765
orientation_covariance: [0.01, 0.0, 0.0, 0.0, 0.01, 0.0, 0.0, 0.0, 0.01]
angular_velocity: 
  x: 0.052900269627571106
  y: -1.540241003036499
  z: 0.2860773503780365
angular_velocity_covariance: [0.01, 0.0, 0.0, 0.0, 0.01, 0.0, 0.0, 0.0, 0.01]
linear_acceleration: 
  x: -2.1004723793431994
  y: -1.0153374921309062
  z: 7.598052256762286
linear_acceleration_covariance: [0.01, 0.0, 0.0, 0.0, 0.01, 0.0, 0.0, 0.0, 0.01]
---
header: 
  seq: 285760
  stamp: 
    secs: 1717502392
    nsecs: 662336346
  frame_id: "imu_link"
orientation: 
  x: -0.03835475776213705
  y: 0.025287571632957116
  z: -0.4641642402282877
  w: 0.8845569565444683
orientation_covariance: [0.01, 0.0, 0.0, 0.0, 0.01, 0.0, 0.0, 0.0, 0.01]
angular_velocity: 
  x: -0.02985968627035618
  y: -1.4921379089355469
  z: 0.23470301926136017
angular_velocity_covariance: [0.01, 0.0, 0.0, 0.0, 0.01, 0.0, 0.0, 0.0, 0.01]
linear_acceleration: 
  x: -1.5202678329970714
  y: -1.4102960877093542
  z: 7.567852567330432
linear_acceleration_covariance: [0.01, 0.0, 0.0, 0.0, 0.01, 0.0, 0.0, 0.0, 0.01]
---
header: 
  seq: 285761
  stamp: 
    secs: 1717502392
    nsecs: 672396091
  frame_id: "imu_link"
orientation: 
  x: -0.046372885313442753
  y: 0.020704531453350862
  z: -0.46511111953776274
  w: 0.8837943903235257
orientation_covariance: [0.01, 0.0, 0.0, 0.0, 0.01, 0.0, 0.0, 0.0, 0.01]
angular_velocity: 
  x: 0.07704924792051315
  y: -1.8728392124176025
  z: 0.16074569523334503
angular_velocity_covariance: [0.01, 0.0, 0.0, 0.0, 0.01, 0.0, 0.0, 0.0, 0.01]
linear_acceleration: 
  x: -1.0959598446921783
  y: -1.1496301434793261
  z: 7.475158353339694
linear_acceleration_covariance: [0.01, 0.0, 0.0, 0.0, 0.01, 0.0, 0.0, 0.0, 0.01]
---
header: 
  seq: 285762
  stamp: 
    secs: 1717502392
    nsecs: 682363280
  frame_id: "imu_link"
orientation: 
  x: -0.05560944655392311
  y: 0.015513808749182133
  z: -0.46576789031647997
  w: 0.8830216212201124
orientation_covariance: [0.01, 0.0, 0.0, 0.0, 0.01, 0.0, 0.0, 0.0, 0.01]
angular_velocity: 
  x: 0.06426174938678741
  y: -2.1352598667144775
  z: 0.10056786984205246
angular_velocity_covariance: [0.01, 0.0, 0.0, 0.0, 0.01, 0.0, 0.0, 0.0, 0.01]
linear_acceleration: 
  x: -0.40801598148555124
  y: -0.9359691217141308
  z: 8.525555172370117
linear_acceleration_covariance: [0.01, 0.0, 0.0, 0.0, 0.01, 0.0, 0.0, 0.0, 0.01]
---
header: 
  seq: 285763
  stamp: 
    secs: 1717502392
    nsecs: 692342946
  frame_id: "imu_link"
orientation: 
  x: -0.06380519062903939
  y: 0.011489123130532944
  z: -0.46657181785173574
  w: 0.8821040961729009
orientation_covariance: [0.01, 0.0, 0.0, 0.0, 0.01, 0.0, 0.0, 0.0, 0.01]
angular_velocity: 
  x: -0.04437045380473137
  y: -1.878769040107727
  z: 0.15355901420116425
angular_velocity_covariance: [0.01, 0.0, 0.0, 0.0, 0.01, 0.0, 0.0, 0.0, 0.01]
linear_acceleration: 
  x: -3.6790612276806214
  y: -1.0473260240811617
  z: 10.055605184905719
linear_acceleration_covariance: [0.01, 0.0, 0.0, 0.0, 0.01, 0.0, 0.0, 0.0, 0.01]
---
header: 
  seq: 285764
  stamp: 
    secs: 1717502392
    nsecs: 702356777
  frame_id: "imu_link"
orientation: 
  x: -0.0705163326619145
  y: 0.008824424688776046
  z: -0.46902621975350045
  w: 0.8803203857349706
