header: 
  seq: 28987
  stamp: 
    secs: 1718301323
    nsecs: 742046153
  frame_id: "imu_link"
orientation: 
  x: 0.3904286487732867
  y: 0.6335259182528666
  z: 0.5823117125911125
  w: -0.3272971898720386
orientation_covariance: [0.01, 0.0, 0.0, 0.0, 0.01, 0.0, 0.0, 0.0, 0.01]
angular_velocity: 
  x: -0.1965201199054718
  y: 0.10047385096549988
  z: 0.1265127956867218
angular_velocity_covariance: [0.01, 0.0, 0.0, 0.0, 0.01, 0.0, 0.0, 0.0, 0.01]
linear_acceleration: 
  x: 9.585962842300635
  y: -0.26734022537820545
  z: -1.4284180933256019
linear_acceleration_covariance: [0.01, 0.0, 0.0, 0.0, 0.01, 0.0, 0.0, 0.0, 0.01]
---
header: 
  seq: 28988
  stamp: 
    secs: 1718301323
    nsecs: 752034556
  frame_id: "imu_link"
orientation: 
  x: 0.39136245056858343
  y: 0.6327123936683164
  z: 0.5823178604043933
  w: -0.3277443647685066
orientation_covariance: [0.01, 0.0, 0.0, 0.0, 0.01, 0.0, 0.0, 0.0, 0.01]
angular_velocity: 
  x: -0.2177092730998993
  y: 0.0739881619811058
  z: 0.13274525105953217
angular_velocity_covariance: [0.01, 0.0, 0.0, 0.0, 0.01, 0.0, 0.0, 0.0, 0.01]
linear_acceleration: 
  x: 9.580638213092756
  y: -0.13424611507095735
  z: -1.493532349154494
linear_acceleration_covariance: [0.01, 0.0, 0.0, 0.0, 0.01, 0.0, 0.0, 0.0, 0.01]
---
header: 
  seq: 28989
  stamp: 
    secs: 1718301323
    nsecs: 762039995
  frame_id: "imu_link"
orientation: 
  x: 0.39236156701234637
  y: 0.6319288000153376
  z: 0.5822371715970327
  w: -0.32820461369925785
orientation_covariance: [0.01, 0.0, 0.0, 0.0, 0.01, 0.0, 0.0, 0.0, 0.01]
angular_velocity: 
  x: -0.2314111292362213
  y: 0.057373952120542526
  z: 0.134756401181221
angular_velocity_covariance: [0.01, 0.0, 0.0, 0.0, 0.01, 0.0, 0.0, 0.0, 0.01]
linear_acceleration: 
  x: 9.509701913616475
  y: 0.1753973132579307
  z: -1.5874884226356838
linear_acceleration_covariance: [0.01, 0.0, 0.0, 0.0, 0.01, 0.0, 0.0, 0.0, 0.01]
---
header: 
  seq: 28990
  stamp: 
    secs: 1718301323
    nsecs: 772125985
  frame_id: "imu_link"
orientation: 
  x: 0.39330124491449586
  y: 0.6312952582229684
  z: 0.5820068179787776
  w: -0.32870730372190043
orientation_covariance: [0.01, 0.0, 0.0, 0.0, 0.01, 0.0, 0.0, 0.0, 0.01]
angular_velocity: 
  x: -0.23109233379364014
  y: 0.03087347000837326
  z: 0.10562935471534729
angular_velocity_covariance: [0.01, 0.0, 0.0, 0.0, 0.01, 0.0, 0.0, 0.0, 0.01]
linear_acceleration: 
  x: 9.353179734476203
  y: 0.6387755247150083
  z: -1.8164730514077032
linear_acceleration_covariance: [0.01, 0.0, 0.0, 0.0, 0.01, 0.0, 0.0, 0.0, 0.01]
---
header: 
  seq: 28991
  stamp: 
    secs: 1718301323
    nsecs: 782201207
  frame_id: "imu_link"
orientation: 
  x: 0.39425981252110326
  y: 0.6308761723295715
  z: 0.58142582487358
  w: -0.3293910526831149
orientation_covariance: [0.01, 0.0, 0.0, 0.0, 0.01, 0.0, 0.0, 0.0, 0.01]
angular_velocity: 
  x: -0.26927003264427185
  y: -0.023763196542859077
  z: 0.04972007870674133
angular_velocity_covariance: [0.01, 0.0, 0.0, 0.0, 0.01, 0.0, 0.0, 0.0, 0.01]
linear_acceleration: 
  x: 9.437777406798356
  y: 0.9043343282630307
  z: -1.9865280542410193
linear_acceleration_covariance: [0.01, 0.0, 0.0, 0.0, 0.01, 0.0, 0.0, 0.0, 0.01]
---
header: 
  seq: 28992
  stamp: 
    secs: 1718301323
    nsecs: 792118820
  frame_id: "imu_link"
orientation: 
  x: 0.39517697007855385
  y: 0.6304806242104729
  z: 0.5807379567586854
  w: -0.3302616695810361
orientation_covariance: [0.01, 0.0, 0.0, 0.0, 0.01, 0.0, 0.0, 0.0, 0.01]
angular_velocity: 
  x: -0.29513028264045715
  y: -0.024443211033940315
  z: 0.012677379883825779
angular_velocity_covariance: [0.01, 0.0, 0.0, 0.0, 0.01, 0.0, 0.0, 0.0, 0.01]
linear_acceleration: 
  x: 9.515418355162293
  y: 0.7896241881366987
  z: -1.8212311966934227
linear_acceleration_covariance: [0.01, 0.0, 0.0, 0.0, 0.01, 0.0, 0.0, 0.0, 0.01]
---
header: 
  seq: 28993
  stamp: 
    secs: 1718301323
    nsecs: 802058941
  frame_id: "imu_link"
orientation: 
  x: 0.3963396147660747
  y: 0.629941450330859
  z: 0.5798705415455572
  w: -0.3314194230424581
orientation_covariance: [0.01, 0.0, 0.0, 0.0, 0.01, 0.0, 0.0, 0.0, 0.01]
angular_velocity: 
  x: -0.3837692439556122
  y: -0.023673921823501587
  z: 0.00733229098841548
angular_velocity_covariance: [0.01, 0.0, 0.0, 0.0, 0.01, 0.0, 0.0, 0.0, 0.01]
linear_acceleration: 
  x: 9.737041661221534
  y: 0.5656594266156444
  z: -1.8903195164744215
linear_acceleration_covariance: [0.01, 0.0, 0.0, 0.0, 0.01, 0.0, 0.0, 0.0, 0.01]
---
header: 
  seq: 28994
  stamp: 
    secs: 1718301323
    nsecs: 817109403
  frame_id: "imu_link"
orientation: 
  x: 0.3977173850528795
  y: 0.6291929904916724
  z: 0.5790186019417655
  w: -0.3326778035100166
orientation_covariance: [0.01, 0.0, 0.0, 0.0, 0.01, 0.0, 0.0, 0.0, 0.01]
angular_velocity: 
  x: -0.4344070553779602
  y: -0.0038943735416978598
  z: 0.0370735302567482
angular_velocity_covariance: [0.01, 0.0, 0.0, 0.0, 0.01, 0.0, 0.0, 0.0, 0.01]
linear_acceleration: 
  x: 9.940836135931374
  y: 0.24421947293130664
  z: -1.9214591216924775
linear_acceleration_covariance: [0.01, 0.0, 0.0, 0.0, 0.01, 0.0, 0.0, 0.0, 0.01]
---
header: 
  seq: 28995
  stamp: 
    secs: 1718301323
    nsecs: 822052501
  frame_id: "imu_link"
orientation: 
  x: 0.3993809707993679
  y: 0.6282249614951021
  z: 0.5781815459682272
  w: -0.33396757001185423
orientation_covariance: [0.01, 0.0, 0.0, 0.0, 0.01, 0.0, 0.0, 0.0, 0.01]
angular_velocity: 
  x: -0.4851400852203369
  y: 0.006105344742536545
  z: 0.08577560633420944
angular_velocity_covariance: [0.01, 0.0, 0.0, 0.0, 0.01, 0.0, 0.0, 0.0, 0.01]
linear_acceleration: 
  x: 10.017656927000512
  y: 0.03452589001339972
  z: -1.8523085822948775
linear_acceleration_covariance: [0.01, 0.0, 0.0, 0.0, 0.01, 0.0, 0.0, 0.0, 0.01]
---
header: 
  seq: 28996
  stamp: 
    secs: 1718301323
    nsecs: 832218085
  frame_id: "imu_link"
orientation: 
  x: 0.40137967236711175
  y: 0.6270318329250797
  z: 0.577296834456856
  w: -0.33534132467558836
orientation_covariance: [0.01, 0.0, 0.0, 0.0, 0.01, 0.0, 0.0, 0.0, 0.01]
angular_velocity: 
  x: -0.5533967018127441
  y: 0.00904491450637579
  z: 0.13248160481452942
angular_velocity_covariance: [0.01, 0.0, 0.0, 0.0, 0.01, 0.0, 0.0, 0.0, 0.01]
linear_acceleration: 
  x: 10.079812611518895
  y: -0.0186442062246988
  z: -1.7191639684960807
linear_acceleration_covariance: [0.01, 0.0, 0.0, 0.0, 0.01, 0.0, 0.0, 0.0, 0.01]
---
header: 
  seq: 28997
  stamp: 
    secs: 1718301323
    nsecs: 842119712
  frame_id: "imu_link"
orientation: 
  x: 0.4037086402661714
  y: 0.6256539413264137
  z: 0.5763638665160337
  w: -0.33672120938819866
orientation_covariance: [0.01, 0.0, 0.0, 0.0, 0.01, 0.0, 0.0, 0.0, 0.01]
angular_velocity: 
  x: -0.6084179878234863
  y: 0.002777863759547472
  z: 0.1859576553106308
angular_velocity_covariance: [0.01, 0.0, 0.0, 0.0, 0.01, 0.0, 0.0, 0.0, 0.01]
linear_acceleration: 
  x: 10.110289948854557
  y: 0.09632298047653745
  z: -1.7381670952149528
linear_acceleration_covariance: [0.01, 0.0, 0.0, 0.0, 0.01, 0.0, 0.0, 0.0, 0.01]
---
header: 
  seq: 28998
  stamp: 
    secs: 1718301323
    nsecs: 852065453
  frame_id: "imu_link"
orientation: 
  x: 0.406309309444712
  y: 0.6241325633758338
  z: 0.5754287303946587
  w: -0.3380134089483186
orientation_covariance: [0.01, 0.0, 0.0, 0.0, 0.01, 0.0, 0.0, 0.0, 0.01]
angular_velocity: 
  x: -0.6384168863296509
  y: -0.005175202153623104
  z: 0.2426166832447052
angular_velocity_covariance: [0.01, 0.0, 0.0, 0.0, 0.01, 0.0, 0.0, 0.0, 0.01]
linear_acceleration: 
  x: 10.004155384362424
  y: 0.19816412741791425
  z: -1.8397415897145848
linear_acceleration_covariance: [0.01, 0.0, 0.0, 0.0, 0.01, 0.0, 0.0, 0.0, 0.01]
---
header: 
  seq: 28999
  stamp: 
    secs: 1718301323
    nsecs: 862229142
  frame_id: "imu_link"
orientation: 
  x: 0.409201777027309
  y: 0.6223480335866838
  z: 0.5746073412268676
  w: -0.33920972005039973
orientation_covariance: [0.01, 0.0, 0.0, 0.0, 0.01, 0.0, 0.0, 0.0, 0.01]
angular_velocity: 
  x: -0.6685635447502136
  y: 0.009433223865926266
  z: 0.32017773389816284
angular_velocity_covariance: [0.01, 0.0, 0.0, 0.0, 0.01, 0.0, 0.0, 0.0, 0.01]
linear_acceleration: 
  x: 9.76314787070318
  y: 0.27705402042069144
  z: -1.5673676261066674
linear_acceleration_covariance: [0.01, 0.0, 0.0, 0.0, 0.01, 0.0, 0.0, 0.0, 0.01]
---
header: 
  seq: 29000
  stamp: 
    secs: 1718301323
    nsecs: 872239059
  frame_id: "imu_link"
orientation: 
  x: 0.41213583654897246
  y: 0.6201949721027362
  z: 0.5740592203792116
  w: -0.3405264458278922
orientation_covariance: [0.01, 0.0, 0.0, 0.0, 0.01, 0.0, 0.0, 0.0, 0.01]
angular_velocity: 
  x: -0.6905851364135742
  y: 0.09142903238534927
  z: 0.3641672134399414
angular_velocity_covariance: [0.01, 0.0, 0.0, 0.0, 0.01, 0.0, 0.0, 0.0, 0.01]
linear_acceleration: 
  x: 9.851904781689601
  y: 0.6530967679901606
  z: -1.440599895105136
linear_acceleration_covariance: [0.01, 0.0, 0.0, 0.0, 0.01, 0.0, 0.0, 0.0, 0.01]
---
header: 
  seq: 29001
  stamp: 
    secs: 1718301323
    nsecs: 882227752
  frame_id: "imu_link"
orientation: 
  x: 0.41495838214686004
  y: 0.6177780866380841
  z: 0.5736830029222093
  w: -0.34212218418863855
orientation_covariance: [0.01, 0.0, 0.0, 0.0, 0.01, 0.0, 0.0, 0.0, 0.01]
angular_velocity: 
  x: -0.7155157923698425
  y: 0.17689654231071472
  z: 0.35636386275291443
angular_velocity_covariance: [0.01, 0.0, 0.0, 0.0, 0.01, 0.0, 0.0, 0.0, 0.01]
linear_acceleration: 
  x: 9.60691429925239
  y: 1.068712675855825
  z: -1.7287154217132321
linear_acceleration_covariance: [0.01, 0.0, 0.0, 0.0, 0.01, 0.0, 0.0, 0.0, 0.01]
---
header: 
  seq: 29002
  stamp: 
    secs: 1718301323
    nsecs: 892103617
  frame_id: "imu_link"
orientation: 
  x: 0.4175116534498573
  y: 0.615335446721122
  z: 0.5733341640717092
  w: -0.3439974470112793
orientation_covariance: [0.01, 0.0, 0.0, 0.0, 0.01, 0.0, 0.0, 0.0, 0.01]
angular_velocity: 
  x: -0.7182590365409851
  y: 0.22760364413261414
  z: 0.29741957783699036
angular_velocity_covariance: [0.01, 0.0, 0.0, 0.0, 0.01, 0.0, 0.0, 0.0, 0.01]
linear_acceleration: 
  x: 9.229750628186403
  y: 1.2363694264213474
  z: -1.9097718802416
linear_acceleration_covariance: [0.01, 0.0, 0.0, 0.0, 0.01, 0.0, 0.0, 0.0, 0.01]
---
header: 
  seq: 29003
  stamp: 
    secs: 1718301323
    nsecs: 902060809
  frame_id: "imu_link"
orientation: 
  x: 0.4196627430370868
  y: 0.6129475148096885
  z: 0.5730048624196151
  w: -0.34618485501057494
orientation_covariance: [0.01, 0.0, 0.0, 0.0, 0.01, 0.0, 0.0, 0.0, 0.01]
angular_velocity: 
  x: -0.704871416091919
  y: 0.27976277470588684
  z: 0.21060729026794434
angular_velocity_covariance: [0.01, 0.0, 0.0, 0.0, 0.01, 0.0, 0.0, 0.0, 0.01]
linear_acceleration: 
  x: 8.968761598607784
  y: 1.3494909684467438
  z: -2.060206355096262
linear_acceleration_covariance: [0.01, 0.0, 0.0, 0.0, 0.01, 0.0, 0.0, 0.0, 0.01]
---
header: 
  seq: 29004
  stamp: 
    secs: 1718301323
    nsecs: 917114992
  frame_id: "imu_link"
orientation: 
  x: 0.42115874454840674
  y: 0.6108255720004648
  z: 0.5727307946142223
  w: -0.3485640104504139
orientation_covariance: [0.01, 0.0, 0.0, 0.0, 0.01, 0.0, 0.0, 0.0, 0.01]
angular_velocity: 
  x: -0.6300640106201172
  y: 0.32000645995140076
  z: 0.09059666097164154
angular_velocity_covariance: [0.01, 0.0, 0.0, 0.0, 0.01, 0.0, 0.0, 0.0, 0.01]
linear_acceleration: 
  x: 9.127630998513794
  y: 1.4460606083184988
  z: -2.3158940450115657
linear_acceleration_covariance: [0.01, 0.0, 0.0, 0.0, 0.01, 0.0, 0.0, 0.0, 0.01]
---
header: 
  seq: 29005
  stamp: 
    secs: 1718301323
    nsecs: 922185794
  frame_id: "imu_link"
orientation: 
  x: 0.4217590875341965
  y: 0.6092195031238373
  z: 0.572533548025798
  w: -0.35096467839493184
orientation_covariance: [0.01, 0.0, 0.0, 0.0, 0.01, 0.0, 0.0, 0.0, 0.01]
angular_velocity: 
  x: -0.48818033933639526
  y: 0.33416128158569336
  z: -0.06367123872041702
angular_velocity_covariance: [0.01, 0.0, 0.0, 0.0, 0.01, 0.0, 0.0, 0.0, 0.01]
linear_acceleration: 
  x: 9.181804305797725
  y: 1.037704702230322
  z: -2.258934897205967
linear_acceleration_covariance: [0.01, 0.0, 0.0, 0.0, 0.01, 0.0, 0.0, 0.0, 0.01]
---
header: 
  seq: 29006
  stamp: 
    secs: 1718301323
    nsecs: 932128281
  frame_id: "imu_link"
orientation: 
  x: 0.42163471542439973
  y: 0.6079917022218574
  z: 0.5725258357814133
  w: -0.3532483887311421
orientation_covariance: [0.01, 0.0, 0.0, 0.0, 0.01, 0.0, 0.0, 0.0, 0.01]
angular_velocity: 
  x: -0.3492851257324219
  y: 0.3522934019565582
  z: -0.16386531293392181
angular_velocity_covariance: [0.01, 0.0, 0.0, 0.0, 0.01, 0.0, 0.0, 0.0, 0.01]
linear_acceleration: 
  x: 9.214535705720872
  y: 0.4077952445521586
  z: -1.9776239133653917
linear_acceleration_covariance: [0.01, 0.0, 0.0, 0.0, 0.01, 0.0, 0.0, 0.0, 0.01]
---
header: 
  seq: 29007
  stamp: 
    secs: 1718301323
    nsecs: 942116676
  frame_id: "imu_link"
orientation: 
  x: 0.4211254126060509
  y: 0.6069398335971244
  z: 0.5727415774867405
  w: -0.3553090354444679
orientation_covariance: [0.01, 0.0, 0.0, 0.0, 0.01, 0.0, 0.0, 0.0, 0.01]
angular_velocity: 
  x: -0.24750950932502747
  y: 0.3651732802391052
  z: -0.18955431878566742
angular_velocity_covariance: [0.01, 0.0, 0.0, 0.0, 0.01, 0.0, 0.0, 0.0, 0.01]
linear_acceleration: 
  x: 9.470910665529646
  y: -0.08436881544338394
  z: -1.748362207511736
linear_acceleration_covariance: [0.01, 0.0, 0.0, 0.0, 0.01, 0.0, 0.0, 0.0, 0.01]
---
header: 
  seq: 29008
  stamp: 
    secs: 1718301323
    nsecs: 952035898
  frame_id: "imu_link"
orientation: 
  x: 0.4206258934498802
  y: 0.6058726758876752
  z: 0.5731558996070099
  w: -0.357049678781367
orientation_covariance: [0.01, 0.0, 0.0, 0.0, 0.01, 0.0, 0.0, 0.0, 0.01]
angular_velocity: 
  x: -0.19467875361442566
  y: 0.3613862097263336
  z: -0.14073805510997772
angular_velocity_covariance: [0.01, 0.0, 0.0, 0.0, 0.01, 0.0, 0.0, 0.0, 0.01]
linear_acceleration: 
  x: 9.815537472868243
  y: -0.5097174839181543
  z: -1.5755840404310886
linear_acceleration_covariance: [0.01, 0.0, 0.0, 0.0, 0.01, 0.0, 0.0, 0.0, 0.01]
---
header: 
  seq: 29009
  stamp: 
    secs: 1718301323
    nsecs: 962044874
  frame_id: "imu_link"
orientation: 
  x: 0.4204071983108313
  y: 0.6046088325327966
  z: 0.573779120171949
  w: -0.35844590733675585
orientation_covariance: [0.01, 0.0, 0.0, 0.0, 0.01, 0.0, 0.0, 0.0, 0.01]
angular_velocity: 
  x: -0.18207702040672302
  y: 0.35573238134384155
  z: -0.03863948956131935
angular_velocity_covariance: [0.01, 0.0, 0.0, 0.0, 0.01, 0.0, 0.0, 0.0, 0.01]
linear_acceleration: 
  x: 10.184595469110915
  y: -0.8077923732665524
  z: -1.1317420607886133
linear_acceleration_covariance: [0.01, 0.0, 0.0, 0.0, 0.01, 0.0, 0.0, 0.0, 0.01]
---
header: 
  seq: 29010
  stamp: 
    secs: 1718301323
    nsecs: 972106898
  frame_id: "imu_link"
orientation: 
  x: 0.42032921986971183
  y: 0.6031244365285601
  z: 0.5747110131682635
  w: -0.35954347766151257
orientation_covariance: [0.01, 0.0, 0.0, 0.0, 0.01, 0.0, 0.0, 0.0, 0.01]
angular_velocity: 
  x: -0.15205012261867523
  y: 0.37987399101257324
  z: 0.0542975552380085
angular_velocity_covariance: [0.01, 0.0, 0.0, 0.0, 0.01, 0.0, 0.0, 0.0, 0.01]
linear_acceleration: 
  x: 10.568223587095146
  y: -0.7266670692907153
  z: -0.7896611203311401
linear_acceleration_covariance: [0.01, 0.0, 0.0, 0.0, 0.01, 0.0, 0.0, 0.0, 0.01]
---
header: 
  seq: 29011
  stamp: 
    secs: 1718301323
    nsecs: 982025282
  frame_id: "imu_link"
orientation: 
  x: 0.42031502626857475
  y: 0.6013157774151153
  z: 0.5759534802538031
  w: -0.3605997824569987
orientation_covariance: [0.01, 0.0, 0.0, 0.0, 0.01, 0.0, 0.0, 0.0, 0.01]
angular_velocity: 
  x: -0.15168102085590363
  y: 0.44274264574050903
  z: 0.11774836480617523
angular_velocity_covariance: [0.01, 0.0, 0.0, 0.0, 0.01, 0.0, 0.0, 0.0, 0.01]
linear_acceleration: 
  x: 11.054026133680368
  y: -0.6062118894278168
  z: -0.3589540157054342
linear_acceleration_covariance: [0.01, 0.0, 0.0, 0.0, 0.01, 0.0, 0.0, 0.0, 0.01]
---
header: 
  seq: 29012
  stamp: 
    secs: 1718301323
    nsecs: 992118727
  frame_id: "imu_link"
orientation: 
  x: 0.42069414585482373
  y: 0.5989277660588005
  z: 0.5773101320503776
  w: -0.36195991230973434
orientation_covariance: [0.01, 0.0, 0.0, 0.0, 0.01, 0.0, 0.0, 0.0, 0.01]
angular_velocity: 
  x: -0.26591071486473083
  y: 0.5151017904281616
  z: 0.18790476024150848
angular_velocity_covariance: [0.01, 0.0, 0.0, 0.0, 0.01, 0.0, 0.0, 0.0, 0.01]
linear_acceleration: 
  x: 11.27192676587146
  y: -0.5234565456614546
  z: 0.2829205596562821
linear_acceleration_covariance: [0.01, 0.0, 0.0, 0.0, 0.01, 0.0, 0.0, 0.0, 0.01]
---
header: 
  seq: 29013
  stamp: 
    secs: 1718301324
    nsecs:   2062347
  frame_id: "imu_link"
orientation: 
  x: 0.42120274271169955
  y: 0.5960394540367357
  z: 0.5788259905706785
  w: -0.36371099983861455
orientation_covariance: [0.01, 0.0, 0.0, 0.0, 0.01, 0.0, 0.0, 0.0, 0.01]
angular_velocity: 
  x: -0.35054996609687805
  y: 0.6122876405715942
  z: 0.21416890621185303
angular_velocity_covariance: [0.01, 0.0, 0.0, 0.0, 0.01, 0.0, 0.0, 0.0, 0.01]
linear_acceleration: 
  x: 11.162361788462551
  y: -0.28263960098388524
  z: 0.6874536982086847
linear_acceleration_covariance: [0.01, 0.0, 0.0, 0.0, 0.01, 0.0, 0.0, 0.0, 0.01]
---
header: 
  seq: 29014
  stamp: 
    secs: 1718301324
    nsecs:  12118620
  frame_id: "imu_link"
orientation: 
  x: 0.4218027726416978
  y: 0.5929066367405272
  z: 0.5801508729271386
  w: -0.3660179035821771
orientation_covariance: [0.01, 0.0, 0.0, 0.0, 0.01, 0.0, 0.0, 0.0, 0.01]
angular_velocity: 
  x: -0.4612370431423187
  y: 0.6585720777511597
  z: 0.1680561751127243
angular_velocity_covariance: [0.01, 0.0, 0.0, 0.0, 0.01, 0.0, 0.0, 0.0, 0.01]
linear_acceleration: 
  x: 11.133273603961399
  y: -0.23145978505675488
  z: 0.6932491415429203
linear_acceleration_covariance: [0.01, 0.0, 0.0, 0.0, 0.01, 0.0, 0.0, 0.0, 0.01]
---
header: 
  seq: 29015
  stamp: 
    secs: 1718301324
    nsecs:  22060840
  frame_id: "imu_link"
orientation: 
  x: 0.4225040026024848
  y: 0.5896161858024519
  z: 0.5813359320430035
  w: -0.36863485367005167
orientation_covariance: [0.01, 0.0, 0.0, 0.0, 0.01, 0.0, 0.0, 0.0, 0.01]
angular_velocity: 
  x: -0.5332262516021729
  y: 0.676917552947998
  z: 0.147232785820961
angular_velocity_covariance: [0.01, 0.0, 0.0, 0.0, 0.01, 0.0, 0.0, 0.0, 0.01]
linear_acceleration: 
  x: 10.822518014256312
  y: -0.22873602144614455
  z: 0.9712880585368614
linear_acceleration_covariance: [0.01, 0.0, 0.0, 0.0, 0.01, 0.0, 0.0, 0.0, 0.01]
---
header: 
  seq: 29016
  stamp: 
    secs: 1718301324
    nsecs:  32227202
  frame_id: "imu_link"
orientation: 
  x: 0.42298073445658396
  y: 0.586541303199723
  z: 0.5824931353353896
  w: -0.37115811348600086
orientation_covariance: [0.01, 0.0, 0.0, 0.0, 0.01, 0.0, 0.0, 0.0, 0.01]
angular_velocity: 
  x: -0.4822133183479309
  y: 0.6624683141708374
  z: 0.11273667216300964
angular_velocity_covariance: [0.01, 0.0, 0.0, 0.0, 0.01, 0.0, 0.0, 0.0, 0.01]
linear_acceleration: 
  x: 10.34071304949663
  y: -0.0921793181222519
  z: 0.451024692098056
linear_acceleration_covariance: [0.01, 0.0, 0.0, 0.0, 0.01, 0.0, 0.0, 0.0, 0.01]
---
header: 
  seq: 29017
  stamp: 
    secs: 1718301324
    nsecs:  42116788
  frame_id: "imu_link"
orientation: 
  x: 0.42350388059466154
  y: 0.5839035148763382
  z: 0.5833247438045762
  w: -0.37340780883860236
orientation_covariance: [0.01, 0.0, 0.0, 0.0, 0.01, 0.0, 0.0, 0.0, 0.01]
angular_velocity: 
  x: -0.4505578875541687
  y: 0.5500258803367615
  z: 0.08705083280801773
angular_velocity_covariance: [0.01, 0.0, 0.0, 0.0, 0.01, 0.0, 0.0, 0.0, 0.01]
linear_acceleration: 
  x: 9.988978821146759
  y: -0.2835274577881235
  z: 0.17113883715929484
linear_acceleration_covariance: [0.01, 0.0, 0.0, 0.0, 0.01, 0.0, 0.0, 0.0, 0.01]
---
header: 
  seq: 29018
  stamp: 
    secs: 1718301324
    nsecs:  52079949
  frame_id: "imu_link"
orientation: 
  x: 0.42450547970792263
  y: 0.5815857422060108
  z: 0.583649657588715
  w: -0.37537474523095704
orientation_covariance: [0.01, 0.0, 0.0, 0.0, 0.01, 0.0, 0.0, 0.0, 0.01]
angular_velocity: 
  x: -0.492382675409317
  y: 0.3959104120731354
  z: 0.10807785391807556
angular_velocity_covariance: [0.01, 0.0, 0.0, 0.0, 0.01, 0.0, 0.0, 0.0, 0.01]
linear_acceleration: 
  x: 9.671778877463836
  y: -0.5606034263212767
  z: 0.01899032424787602
linear_acceleration_covariance: [0.01, 0.0, 0.0, 0.0, 0.01, 0.0, 0.0, 0.0, 0.01]
---
header: 
  seq: 29019
  stamp: 
    secs: 1718301324
    nsecs:  62251816
  frame_id: "imu_link"
orientation: 
  x: 0.42620798577692803
  y: 0.579420376522455
  z: 0.5835504986645796
  w: -0.3769450830543767
orientation_covariance: [0.01, 0.0, 0.0, 0.0, 0.01, 0.0, 0.0, 0.0, 0.01]
angular_velocity: 
  x: -0.5528971552848816
  y: 0.24086442589759827
  z: 0.1864234358072281
angular_velocity_covariance: [0.01, 0.0, 0.0, 0.0, 0.01, 0.0, 0.0, 0.0, 0.01]
linear_acceleration: 
  x: 9.350856259912764
  y: -0.9941909281612208
  z: 0.20554855415805037
linear_acceleration_covariance: [0.01, 0.0, 0.0, 0.0, 0.01, 0.0, 0.0, 0.0, 0.01]
---
header: 
  seq: 29020
  stamp: 
    secs: 1718301324
    nsecs:  72225558
  frame_id: "imu_link"
orientation: 
  x: 0.42882314545188893
  y: 0.577259236466368
  z: 0.5829164811328088
  w: -0.3782735251940819
orientation_covariance: [0.01, 0.0, 0.0, 0.0, 0.01, 0.0, 0.0, 0.0, 0.01]
angular_velocity: 
  x: -0.6764723062515259
  y: 0.09258469939231873
  z: 0.27873367071151733
angular_velocity_covariance: [0.01, 0.0, 0.0, 0.0, 0.01, 0.0, 0.0, 0.0, 0.01]
linear_acceleration: 
  x: 9.451644275625666
  y: -1.1185656584589283
  z: -0.10878955116645739
linear_acceleration_covariance: [0.01, 0.0, 0.0, 0.0, 0.01, 0.0, 0.0, 0.0, 0.01]
---
header: 
  seq: 29021
  stamp: 
    secs: 1718301324
    nsecs:  82211252
  frame_id: "imu_link"
orientation: 
  x: 0.43217042151560797
  y: 0.5751617230345278
  z: 0.5818602741762042
  w: -0.3792839839204489
orientation_covariance: [0.01, 0.0, 0.0, 0.0, 0.01, 0.0, 0.0, 0.0, 0.01]
angular_velocity: 
  x: -0.7563788294792175
  y: -0.04418979212641716
  z: 0.3628731071949005
angular_velocity_covariance: [0.01, 0.0, 0.0, 0.0, 0.01, 0.0, 0.0, 0.0, 0.01]
linear_acceleration: 
  x: 9.229121353825473
  y: -1.120776681054747
  z: -0.29487075034007243
linear_acceleration_covariance: [0.01, 0.0, 0.0, 0.0, 0.01, 0.0, 0.0, 0.0, 0.01]
---
header: 
  seq: 29022
  stamp: 
    secs: 1718301324
    nsecs:  92121940
  frame_id: "imu_link"
orientation: 
  x: 0.43605165836546844
  y: 0.5730808847944374
  z: 0.580465149722648
  w: -0.3801282161026904
orientation_covariance: [0.01, 0.0, 0.0, 0.0, 0.01, 0.0, 0.0, 0.0, 0.01]
angular_velocity: 
  x: -0.8274806141853333
  y: -0.13892501592636108
  z: 0.4129650294780731
angular_velocity_covariance: [0.01, 0.0, 0.0, 0.0, 0.01, 0.0, 0.0, 0.0, 0.01]
linear_acceleration: 
  x: 8.896384087315033
  y: -1.4321980777396854
  z: -0.38549185237142203
linear_acceleration_covariance: [0.01, 0.0, 0.0, 0.0, 0.01, 0.0, 0.0, 0.0, 0.01]
---
header: 
  seq: 29023
  stamp: 
    secs: 1718301324
    nsecs: 102060048
  frame_id: "imu_link"
orientation: 
  x: 0.44020756348006906
  y: 0.5710385339613299
  z: 0.5788036428868681
  w: -0.38094440114946837
orientation_covariance: [0.01, 0.0, 0.0, 0.0, 0.01, 0.0, 0.0, 0.0, 0.01]
angular_velocity: 
  x: -0.8765575885772705
  y: -0.19819822907447815
  z: 0.4236789643764496
angular_velocity_covariance: [0.01, 0.0, 0.0, 0.0, 0.01, 0.0, 0.0, 0.0, 0.01]
linear_acceleration: 
  x: 8.616863886788238
  y: -1.4594973055580027
  z: -0.3116591726601253
linear_acceleration_covariance: [0.01, 0.0, 0.0, 0.0, 0.01, 0.0, 0.0, 0.0, 0.01]
---
header: 
  seq: 29024
  stamp: 
    secs: 1718301324
    nsecs: 112178729
  frame_id: "imu_link"
orientation: 
  x: 0.44406539702376824
  y: 0.5692441639263021
  z: 0.5771204400728291
  w: -0.3817053872453366
orientation_covariance: [0.01, 0.0, 0.0, 0.0, 0.01, 0.0, 0.0, 0.0, 0.01]
angular_velocity: 
  x: -0.8185368180274963
  y: -0.20771627128124237
  z: 0.3719552457332611
angular_velocity_covariance: [0.01, 0.0, 0.0, 0.0, 0.01, 0.0, 0.0, 0.0, 0.01]
linear_acceleration: 
  x: 8.33185557358389
  y: -1.4998213253374786
  z: -0.6449524485058931
linear_acceleration_covariance: [0.01, 0.0, 0.0, 0.0, 0.01, 0.0, 0.0, 0.0, 0.01]
---
header: 
  seq: 29025
  stamp: 
    secs: 1718301324
    nsecs: 122204457
  frame_id: "imu_link"
orientation: 
  x: 0.4474693824994192
  y: 0.5677805604974476
  z: 0.5754224845672624
  w: -0.3824726802024318
orientation_covariance: [0.01, 0.0, 0.0, 0.0, 0.01, 0.0, 0.0, 0.0, 0.01]
angular_velocity: 
  x: -0.7428126335144043
  y: -0.21040140092372894
  z: 0.28840991854667664
angular_velocity_covariance: [0.01, 0.0, 0.0, 0.0, 0.01, 0.0, 0.0, 0.0, 0.01]
linear_acceleration: 
  x: 8.349126369179256
  y: -1.5911747922137798
  z: -0.8411298150882851
linear_acceleration_covariance: [0.01, 0.0, 0.0, 0.0, 0.01, 0.0, 0.0, 0.0, 0.01]
---
header: 
  seq: 29026
  stamp: 
    secs: 1718301324
    nsecs: 132238785
  frame_id: "imu_link"
orientation: 
  x: 0.45043381774603386
  y: 0.5665864244272852
  z: 0.5737274072097354
  w: -0.3833093550930258
orientation_covariance: [0.01, 0.0, 0.0, 0.0, 0.01, 0.0, 0.0, 0.0, 0.01]
angular_velocity: 
  x: -0.6790900826454163
  y: -0.19955985248088837
  z: 0.20736674964427948
angular_velocity_covariance: [0.01, 0.0, 0.0, 0.0, 0.01, 0.0, 0.0, 0.0, 0.01]
linear_acceleration: 
  x: 8.569844579604705
  y: -1.5919636684536262
  z: -1.036983183006613
linear_acceleration_covariance: [0.01, 0.0, 0.0, 0.0, 0.01, 0.0, 0.0, 0.0, 0.01]
---
header: 
  seq: 29027
  stamp: 
    secs: 1718301324
    nsecs: 142027756
  frame_id: "imu_link"
orientation: 
  x: 0.45260505668093653
  y: 0.5658045065530803
  z: 0.5722290824152323
  w: -0.3841455456845663
orientation_covariance: [0.01, 0.0, 0.0, 0.0, 0.01, 0.0, 0.0, 0.0, 0.01]
angular_velocity: 
  x: -0.5383901000022888
  y: -0.16091272234916687
  z: 0.09663555026054382
angular_velocity_covariance: [0.01, 0.0, 0.0, 0.0, 0.01, 0.0, 0.0, 0.0, 0.01]
linear_acceleration: 
  x: 8.635418803938713
  y: -1.5208205030227004
  z: -1.326482382556379
linear_acceleration_covariance: [0.01, 0.0, 0.0, 0.0, 0.01, 0.0, 0.0, 0.0, 0.01]
---
header: 
  seq: 29028
  stamp: 
    secs: 1718301324
    nsecs: 152095042
  frame_id: "imu_link"
orientation: 
  x: 0.4537165471264269
  y: 0.5655662374321079
  z: 0.5710267564840885
  w: -0.3849734657347477
orientation_covariance: [0.01, 0.0, 0.0, 0.0, 0.01, 0.0, 0.0, 0.0, 0.01]
angular_velocity: 
  x: -0.34739628434181213
  y: -0.1072709858417511
  z: -0.046777866780757904
angular_velocity_covariance: [0.01, 0.0, 0.0, 0.0, 0.01, 0.0, 0.0, 0.0, 0.01]
linear_acceleration: 
  x: 8.854537798970851
  y: -1.379520096214006
  z: -1.5344327851618984
linear_acceleration_covariance: [0.01, 0.0, 0.0, 0.0, 0.01, 0.0, 0.0, 0.0, 0.01]
---
header: 
  seq: 29029
  stamp: 
    secs: 1718301324
    nsecs: 162055063
  frame_id: "imu_link"
orientation: 
  x: 0.4538446754583154
  y: 0.5657051070416772
  z: 0.5701529165784975
  w: -0.38591241770916596
orientation_covariance: [0.01, 0.0, 0.0, 0.0, 0.01, 0.0, 0.0, 0.0, 0.01]
angular_velocity: 
  x: -0.18890008330345154
  y: -0.029471298679709435
  z: -0.1778019666671753
angular_velocity_covariance: [0.01, 0.0, 0.0, 0.0, 0.01, 0.0, 0.0, 0.0, 0.01]
linear_acceleration: 
  x: 9.255068646414808
  y: -1.2606834826160023
  z: -1.4175914233792053
linear_acceleration_covariance: [0.01, 0.0, 0.0, 0.0, 0.01, 0.0, 0.0, 0.0, 0.01]
---
header: 
  seq: 29030
  stamp: 
    secs: 1718301324
    nsecs: 172114868
  frame_id: "imu_link"
orientation: 
  x: 0.4532032364490346
  y: 0.5660347786288158
  z: 0.569595233527087
  w: -0.38700481366253203
orientation_covariance: [0.01, 0.0, 0.0, 0.0, 0.01, 0.0, 0.0, 0.0, 0.01]
angular_velocity: 
  x: -0.07498395442962646
  y: 0.05721331760287285
  z: -0.27205148339271545
angular_velocity_covariance: [0.01, 0.0, 0.0, 0.0, 0.01, 0.0, 0.0, 0.0, 0.01]
linear_acceleration: 
  x: 9.617392767674685
  y: -0.9713736818624598
  z: -1.4049616403601404
linear_acceleration_covariance: [0.01, 0.0, 0.0, 0.0, 0.01, 0.0, 0.0, 0.0, 0.01]
---
header: 
  seq: 29031
  stamp: 
    secs: 1718301324
    nsecs: 182053983
  frame_id: "imu_link"
orientation: 
  x: 0.451803424117977
  y: 0.5665949303482748
  z: 0.5693256771417452
  w: -0.38821659444953954
orientation_covariance: [0.01, 0.0, 0.0, 0.0, 0.01, 0.0, 0.0, 0.0, 0.01]
angular_velocity: 
  x: 0.04180658236145973
  y: 0.13102014362812042
  z: -0.36720404028892517
angular_velocity_covariance: [0.01, 0.0, 0.0, 0.0, 0.01, 0.0, 0.0, 0.0, 0.01]
linear_acceleration: 
  x: 9.828035281801453
  y: -0.6776614721999507
  z: -1.2234199829867152
linear_acceleration_covariance: [0.01, 0.0, 0.0, 0.0, 0.01, 0.0, 0.0, 0.0, 0.01]
---
header: 
  seq: 29032
  stamp: 
    secs: 1718301324
    nsecs: 192038355
  frame_id: "imu_link"
orientation: 
  x: 0.4498439786844328
  y: 0.5671998199396155
  z: 0.569341285438692
  w: -0.3895834439460246
orientation_covariance: [0.01, 0.0, 0.0, 0.0, 0.01, 0.0, 0.0, 0.0, 0.01]
angular_velocity: 
  x: 0.11683791130781174
  y: 0.212026908993721
  z: -0.4312683939933777
angular_velocity_covariance: [0.01, 0.0, 0.0, 0.0, 0.01, 0.0, 0.0, 0.0, 0.01]
linear_acceleration: 
  x: 9.984698111524576
  y: -0.7614841963432223
  z: -0.8551517192171456
linear_acceleration_covariance: [0.01, 0.0, 0.0, 0.0, 0.01, 0.0, 0.0, 0.0, 0.01]
---
header: 
  seq: 29033
  stamp: 
    secs: 1718301324
    nsecs: 202054745
  frame_id: "imu_link"
orientation: 
  x: 0.44772969623737985
  y: 0.5675703149580312
  z: 0.5695718581854555
  w: -0.3911393038915831
orientation_covariance: [0.01, 0.0, 0.0, 0.0, 0.01, 0.0, 0.0, 0.0, 0.01]
angular_velocity: 
  x: 0.11377456784248352
  y: 0.28801271319389343
  z: -0.43351680040359497
angular_velocity_covariance: [0.01, 0.0, 0.0, 0.0, 0.01, 0.0, 0.0, 0.0, 0.01]
linear_acceleration: 
  x: 10.041995871041808
  y: -0.824258823341247
  z: -0.4198018895486268
linear_acceleration_covariance: [0.01, 0.0, 0.0, 0.0, 0.01, 0.0, 0.0, 0.0, 0.01]
---
header: 
  seq: 29034
  stamp: 
    secs: 1718301324
    nsecs: 212118395
  frame_id: "imu_link"
orientation: 
  x: 0.44556704161945637
  y: 0.5677429764852387
  z: 0.5699564867701177
  w: -0.39279451022491624
orientation_covariance: [0.01, 0.0, 0.0, 0.0, 0.01, 0.0, 0.0, 0.0, 0.01]
angular_velocity: 
  x: 0.10627619922161102
  y: 0.3399091362953186
  z: -0.42066580057144165
angular_velocity_covariance: [0.01, 0.0, 0.0, 0.0, 0.01, 0.0, 0.0, 0.0, 0.01]
linear_acceleration: 
  x: 10.003321527335528
  y: -0.7891478370352862
  z: -0.3058791415244976
linear_acceleration_covariance: [0.01, 0.0, 0.0, 0.0, 0.01, 0.0, 0.0, 0.0, 0.01]
---
header: 
  seq: 29035
  stamp: 
    secs: 1718301324
    nsecs: 222057510
  frame_id: "imu_link"
orientation: 
  x: 0.44330609986104
  y: 0.5679017527746686
  z: 0.5705177286653901
  w: -0.3943054936213002
orientation_covariance: [0.01, 0.0, 0.0, 0.0, 0.01, 0.0, 0.0, 0.0, 0.01]
angular_velocity: 
  x: 0.148435577750206
  y: 0.3559461832046509
  z: -0.4011855125427246
angular_velocity_covariance: [0.01, 0.0, 0.0, 0.0, 0.01, 0.0, 0.0, 0.0, 0.01]
linear_acceleration: 
  x: 9.887536871555154
  y: -0.8291920968689236
  z: -0.2202817312526566
linear_acceleration_covariance: [0.01, 0.0, 0.0, 0.0, 0.01, 0.0, 0.0, 0.0, 0.01]
---
header: 
  seq: 29036
  stamp: 
    secs: 1718301324
    nsecs: 237115805
  frame_id: "imu_link"
orientation: 
  x: 0.4412006374471536
  y: 0.5680294544342132
  z: 0.5710953898962347
  w: -0.39564452738621747
orientation_covariance: [0.01, 0.0, 0.0, 0.0, 0.01, 0.0, 0.0, 0.0, 0.01]
angular_velocity: 
  x: 0.14904743432998657
  y: 0.33224597573280334
  z: -0.36281129717826843
angular_velocity_covariance: [0.01, 0.0, 0.0, 0.0, 0.01, 0.0, 0.0, 0.0, 0.01]
linear_acceleration: 
  x: 10.074589360328526
  y: -1.1042541191606772
  z: -0.021235378547981475
linear_acceleration_covariance: [0.01, 0.0, 0.0, 0.0, 0.01, 0.0, 0.0, 0.0, 0.01]
---
header: 
  seq: 29037
  stamp: 
    secs: 1718301324
    nsecs: 242019833
  frame_id: "imu_link"
orientation: 
  x: 0.43929298295190294
  y: 0.5680576877341329
  z: 0.5717354689322367
  w: -0.39680056968230887
orientation_covariance: [0.01, 0.0, 0.0, 0.0, 0.01, 0.0, 0.0, 0.0, 0.01]
angular_velocity: 
  x: 0.14477987587451935
  y: 0.3180437684059143
  z: -0.30848047137260437
angular_velocity_covariance: [0.01, 0.0, 0.0, 0.0, 0.01, 0.0, 0.0, 0.0, 0.01]
linear_acceleration: 
  x: 10.075974859901141
  y: -1.3518654745122385
  z: 0.09873927786020112
linear_acceleration_covariance: [0.01, 0.0, 0.0, 0.0, 0.01, 0.0, 0.0, 0.0, 0.01]
---
header: 
  seq: 29038
  stamp: 
    secs: 1718301324
    nsecs: 252113487
  frame_id: "imu_link"
orientation: 
  x: 0.43748364906607373
  y: 0.5680657465048129
  z: 0.5724832153730143
  w: -0.39770885401753014
orientation_covariance: [0.01, 0.0, 0.0, 0.0, 0.01, 0.0, 0.0, 0.0, 0.01]
angular_velocity: 
  x: 0.16956278681755066
  y: 0.3038838803768158
  z: -0.2606314420700073
angular_velocity_covariance: [0.01, 0.0, 0.0, 0.0, 0.01, 0.0, 0.0, 0.0, 0.01]
linear_acceleration: 
  x: 9.964509272992817
  y: -1.5072428127070445
  z: 0.04167398923960714
linear_acceleration_covariance: [0.01, 0.0, 0.0, 0.0, 0.01, 0.0, 0.0, 0.0, 0.01]
---
header: 
  seq: 29039
  stamp: 
    secs: 1718301324
    nsecs: 262048851
  frame_id: "imu_link"
orientation: 
  x: 0.4356767156726622
  y: 0.5682231297686373
  z: 0.5732043868415546
  w: -0.39842816808329984
orientation_covariance: [0.01, 0.0, 0.0, 0.0, 0.01, 0.0, 0.0, 0.0, 0.01]
angular_velocity: 
  x: 0.20046208798885345
  y: 0.2685180902481079
  z: -0.2526652216911316
angular_velocity_covariance: [0.01, 0.0, 0.0, 0.0, 0.01, 0.0, 0.0, 0.0, 0.01]
linear_acceleration: 
  x: 9.750246376330884
  y: -1.3272279904756896
  z: -0.07274783217596516
linear_acceleration_covariance: [0.01, 0.0, 0.0, 0.0, 0.01, 0.0, 0.0, 0.0, 0.01]
---
header: 
  seq: 29040
  stamp: 
    secs: 1718301324
    nsecs: 272115569
  frame_id: "imu_link"
orientation: 
  x: 0.43390293527199003
  y: 0.5685729267740903
  z: 0.5737827773301712
  w: -0.39903182096315487
orientation_covariance: [0.01, 0.0, 0.0, 0.0, 0.01, 0.0, 0.0, 0.0, 0.01]
angular_velocity: 
  x: 0.2127441167831421
  y: 0.21749162673950195
  z: -0.2623375356197357
angular_velocity_covariance: [0.01, 0.0, 0.0, 0.0, 0.01, 0.0, 0.0, 0.0, 0.01]
linear_acceleration: 
  x: 9.724942057834575
  y: -1.1570754912156256
  z: -0.04421383037919358
linear_acceleration_covariance: [0.01, 0.0, 0.0, 0.0, 0.01, 0.0, 0.0, 0.0, 0.01]
---
header: 
  seq: 29041
  stamp: 
    secs: 1718301324
    nsecs: 282062525
  frame_id: "imu_link"
orientation: 
  x: 0.4320417138629396
  y: 0.5691366743147291
  z: 0.5742994155383904
  w: -0.39950417362601753
orientation_covariance: [0.01, 0.0, 0.0, 0.0, 0.01, 0.0, 0.0, 0.0, 0.01]
angular_velocity: 
  x: 0.24948827922344208
  y: 0.18177300691604614
  z: -0.2799559533596039
angular_velocity_covariance: [0.01, 0.0, 0.0, 0.0, 0.01, 0.0, 0.0, 0.0, 0.01]
linear_acceleration: 
  x: 9.575878926162694
  y: -1.0416198573344169
  z: -0.04793166296180838
linear_acceleration_covariance: [0.01, 0.0, 0.0, 0.0, 0.01, 0.0, 0.0, 0.0, 0.01]
---
header: 
  seq: 29042
  stamp: 
    secs: 1718301324
    nsecs: 292038368
  frame_id: "imu_link"
orientation: 
  x: 0.43021028888634666
  y: 0.5697623326669756
  z: 0.5747816954346958
  w: -0.399894978967515
orientation_covariance: [0.01, 0.0, 0.0, 0.0, 0.01, 0.0, 0.0, 0.0, 0.01]
angular_velocity: 
  x: 0.25728923082351685
  y: 0.1602325290441513
  z: -0.27542200684547424
angular_velocity_covariance: [0.01, 0.0, 0.0, 0.0, 0.01, 0.0, 0.0, 0.0, 0.01]
linear_acceleration: 
  x: 9.706084833262521
  y: -1.0434330168772883
  z: 0.07824564883042064
linear_acceleration_covariance: [0.01, 0.0, 0.0, 0.0, 0.01, 0.0, 0.0, 0.0, 0.01]
---
header: 
  seq: 29043
  stamp: 
    secs: 1718301324
    nsecs: 302055595
  frame_id: "imu_link"
orientation: 
  x: 0.42881925508346663
  y: 0.5701550681606368
  z: 0.5752296116458272
  w: -0.40018513041615045
orientation_covariance: [0.01, 0.0, 0.0, 0.0, 0.01, 0.0, 0.0, 0.0, 0.01]
angular_velocity: 
  x: 0.19646161794662476
  y: 0.1376994401216507
  z: -0.19868426024913788
angular_velocity_covariance: [0.01, 0.0, 0.0, 0.0, 0.01, 0.0, 0.0, 0.0, 0.01]
linear_acceleration: 
  x: 10.224163035349838
  y: -1.3111281794812075
  z: 0.2565485753719784
linear_acceleration_covariance: [0.01, 0.0, 0.0, 0.0, 0.01, 0.0, 0.0, 0.0, 0.01]
---
header: 
  seq: 29044
  stamp: 
    secs: 1718301324
    nsecs: 312120468
  frame_id: "imu_link"
orientation: 
  x: 0.4278540743163179
  y: 0.5702187596570848
  z: 0.5757647842805335
  w: -0.4003578029818494
orientation_covariance: [0.01, 0.0, 0.0, 0.0, 0.01, 0.0, 0.0, 0.0, 0.01]
angular_velocity: 
  x: 0.1418682038784027
  y: 0.13809798657894135
  z: -0.10458197444677353
angular_velocity_covariance: [0.01, 0.0, 0.0, 0.0, 0.01, 0.0, 0.0, 0.0, 0.01]
linear_acceleration: 
  x: 10.356567292793295
  y: -1.645338738014111
  z: 0.615448933793371
linear_acceleration_covariance: [0.01, 0.0, 0.0, 0.0, 0.01, 0.0, 0.0, 0.0, 0.01]
---
header: 
  seq: 29045
  stamp: 
    secs: 1718301324
    nsecs: 322060523
  frame_id: "imu_link"
orientation: 
  x: 0.42717757675729195
  y: 0.570039270518973
  z: 0.5764152140836959
  w: -0.40039986133215877
orientation_covariance: [0.01, 0.0, 0.0, 0.0, 0.01, 0.0, 0.0, 0.0, 0.01]
angular_velocity: 
  x: 0.11395770311355591
  y: 0.14586910605430603
  z: -0.02726590447127819
angular_velocity_covariance: [0.01, 0.0, 0.0, 0.0, 0.01, 0.0, 0.0, 0.0, 0.01]
linear_acceleration: 
  x: 10.452438017999299
  y: -1.723248315291558
  z: 0.5418756071353117
linear_acceleration_covariance: [0.01, 0.0, 0.0, 0.0, 0.01, 0.0, 0.0, 0.0, 0.01]
---
header: 
  seq: 29046
  stamp: 
    secs: 1718301324
    nsecs: 332115603
  frame_id: "imu_link"
orientation: 
  x: 0.426575117069982
  y: 0.5698404890968838
  z: 0.577092860347077
  w: -0.4003489940276915
orientation_covariance: [0.01, 0.0, 0.0, 0.0, 0.01, 0.0, 0.0, 0.0, 0.01]
angular_velocity: 
  x: 0.11682739853858948
  y: 0.13753892481327057
  z: -0.003507942659780383
angular_velocity_covariance: [0.01, 0.0, 0.0, 0.0, 0.01, 0.0, 0.0, 0.0, 0.01]
linear_acceleration: 
  x: 10.43277342254907
  y: -1.6361231565621732
  z: 0.5341652837473939
linear_acceleration_covariance: [0.01, 0.0, 0.0, 0.0, 0.01, 0.0, 0.0, 0.0, 0.01]
---
header: 
  seq: 29047
  stamp: 
    secs: 1718301324
    nsecs: 342059927
  frame_id: "imu_link"
orientation: 
  x: 0.42595949032421754
  y: 0.5696857351423719
  z: 0.5777840303187655
  w: -0.40022779774352524
orientation_covariance: [0.01, 0.0, 0.0, 0.0, 0.01, 0.0, 0.0, 0.0, 0.01]
angular_velocity: 
  x: 0.13101355731487274
  y: 0.12778092920780182
  z: 0.0006672616000287235
angular_velocity_covariance: [0.01, 0.0, 0.0, 0.0, 0.01, 0.0, 0.0, 0.0, 0.01]
linear_acceleration: 
  x: 10.448396597031055
  y: -1.6153600709267348
  z: 0.6826704367474564
linear_acceleration_covariance: [0.01, 0.0, 0.0, 0.0, 0.01, 0.0, 0.0, 0.0, 0.01]
---
header: 
  seq: 29048
  stamp: 
    secs: 1718301324
    nsecs: 352065836
  frame_id: "imu_link"
orientation: 
  x: 0.42519183663276855
  y: 0.5696018276071436
  z: 0.5785088633240051
  w: -0.4001164269347393
orientation_covariance: [0.01, 0.0, 0.0, 0.0, 0.01, 0.0, 0.0, 0.0, 0.01]
angular_velocity: 
  x: 0.15598604083061218
  y: 0.13546037673950195
  z: -0.020320264622569084
angular_velocity_covariance: [0.01, 0.0, 0.0, 0.0, 0.01, 0.0, 0.0, 0.0, 0.01]
linear_acceleration: 
  x: 10.202089113681705
  y: -1.4949764150818194
  z: 0.7827074217304267
linear_acceleration_covariance: [0.01, 0.0, 0.0, 0.0, 0.01, 0.0, 0.0, 0.0, 0.01]
---
header: 
  seq: 29049
  stamp: 
    secs: 1718301324
    nsecs: 362058509
  frame_id: "imu_link"
orientation: 
  x: 0.4242324916729182
  y: 0.5696429033715393
  z: 0.5792438178987279
  w: -0.4000129436324977
orientation_covariance: [0.01, 0.0, 0.0, 0.0, 0.01, 0.0, 0.0, 0.0, 0.01]
angular_velocity: 
  x: 0.18819966912269592
  y: 0.13945825397968292
  z: -0.051860302686691284
angular_velocity_covariance: [0.01, 0.0, 0.0, 0.0, 0.01, 0.0, 0.0, 0.0, 0.01]
linear_acceleration: 
  x: 10.034414439300026
  y: -1.3637541020249233
  z: 0.6489225737850222
linear_acceleration_covariance: [0.01, 0.0, 0.0, 0.0, 0.01, 0.0, 0.0, 0.0, 0.01]
---
header: 
  seq: 29050
  stamp: 
    secs: 1718301324
    nsecs: 372098700
  frame_id: "imu_link"
orientation: 
  x: 0.42307403785185543
  y: 0.5698865293092116
  z: 0.5798895143263262
  w: -0.3999573144499366
orientation_covariance: [0.01, 0.0, 0.0, 0.0, 0.01, 0.0, 0.0, 0.0, 0.01]
angular_velocity: 
  x: 0.21449492871761322
  y: 0.12565845251083374
  z: -0.10133364051580429
angular_velocity_covariance: [0.01, 0.0, 0.0, 0.0, 0.01, 0.0, 0.0, 0.0, 0.01]
linear_acceleration: 
  x: 9.929154831031072
  y: -1.0350291445520237
  z: 0.6722486509667058
linear_acceleration_covariance: [0.01, 0.0, 0.0, 0.0, 0.01, 0.0, 0.0, 0.0, 0.01]
---
header: 
  seq: 29051
  stamp: 
    secs: 1718301324
    nsecs: 382056357
  frame_id: "imu_link"
orientation: 
  x: 0.4216808410253229
  y: 0.5703104920886675
  z: 0.5804674664829608
  w: -0.3999859138527396
orientation_covariance: [0.01, 0.0, 0.0, 0.0, 0.01, 0.0, 0.0, 0.0, 0.01]
angular_velocity: 
  x: 0.24076960980892181
  y: 0.12069647759199142
  z: -0.15659114718437195
angular_velocity_covariance: [0.01, 0.0, 0.0, 0.0, 0.01, 0.0, 0.0, 0.0, 0.01]
linear_acceleration: 
  x: 9.710660543782499
  y: -0.8124104958738102
  z: 0.8908427179307096
linear_acceleration_covariance: [0.01, 0.0, 0.0, 0.0, 0.01, 0.0, 0.0, 0.0, 0.01]
---
header: 
  seq: 29052
  stamp: 
    secs: 1718301324
    nsecs: 392092733
  frame_id: "imu_link"
orientation: 
  x: 0.42007598892145315
  y: 0.5708979782363057
  z: 0.5809659224233635
  w: -0.40011280779316727
orientation_covariance: [0.01, 0.0, 0.0, 0.0, 0.01, 0.0, 0.0, 0.0, 0.01]
angular_velocity: 
  x: 0.2605780065059662
  y: 0.11861452460289001
  z: -0.20847435295581818
angular_velocity_covariance: [0.01, 0.0, 0.0, 0.0, 0.01, 0.0, 0.0, 0.0, 0.01]
linear_acceleration: 
  x: 9.511987942245518
  y: -0.4161874435640334
  z: 0.813023901378397
linear_acceleration_covariance: [0.01, 0.0, 0.0, 0.0, 0.01, 0.0, 0.0, 0.0, 0.01]
---
header: 
  seq: 29053
  stamp: 
    secs: 1718301324
    nsecs: 402047882
  frame_id: "imu_link"
orientation: 
  x: 0.4184435736574082
  y: 0.5716380245607138
  z: 0.5812353883069006
  w: -0.4003752838536221
orientation_covariance: [0.01, 0.0, 0.0, 0.0, 0.01, 0.0, 0.0, 0.0, 0.01]
angular_velocity: 
  x: 0.2413317859172821
  y: 0.08940470218658447
  z: -0.2556840479373932
angular_velocity_covariance: [0.01, 0.0, 0.0, 0.0, 0.01, 0.0, 0.0, 0.0, 0.01]
linear_acceleration: 
  x: 9.504218367516286
  y: -0.1251308556155126
  z: 0.7225294647867159
linear_acceleration_covariance: [0.01, 0.0, 0.0, 0.0, 0.01, 0.0, 0.0, 0.0, 0.01]
---
header: 
  seq: 29054
  stamp: 
    secs: 1718301324
    nsecs: 412118176
  frame_id: "imu_link"
orientation: 
  x: 0.41698205327964993
  y: 0.5723834120171609
  z: 0.5812968433196605
  w: -0.40074577581913273
orientation_covariance: [0.01, 0.0, 0.0, 0.0, 0.01, 0.0, 0.0, 0.0, 0.01]
angular_velocity: 
  x: 0.19215281307697296
  y: 0.05999111011624336
  z: -0.26640835404396057
angular_velocity_covariance: [0.01, 0.0, 0.0, 0.0, 0.01, 0.0, 0.0, 0.0, 0.01]
linear_acceleration: 
  x: 9.80546451651598
  y: -0.16402126978394035
  z: 0.7939350942517094
linear_acceleration_covariance: [0.01, 0.0, 0.0, 0.0, 0.01, 0.0, 0.0, 0.0, 0.01]
---
header: 
  seq: 29055
  stamp: 
    secs: 1718301324
    nsecs: 422170503
  frame_id: "imu_link"
orientation: 
  x: 0.4160274987244463
  y: 0.5728561385417612
  z: 0.5812207756989605
  w: -0.40117249997476406
orientation_covariance: [0.01, 0.0, 0.0, 0.0, 0.01, 0.0, 0.0, 0.0, 0.01]
angular_velocity: 
  x: 0.09343855082988739
  y: 0.03923485428094864
  z: -0.20676808059215546
angular_velocity_covariance: [0.01, 0.0, 0.0, 0.0, 0.01, 0.0, 0.0, 0.0, 0.01]
linear_acceleration: 
  x: 10.249462787268781
  y: -0.5116001125191946
  z: 0.9171024214940453
linear_acceleration_covariance: [0.01, 0.0, 0.0, 0.0, 0.01, 0.0, 0.0, 0.0, 0.01]
---
header: 
  seq: 29056
  stamp: 
    secs: 1718301324
    nsecs: 432252353
  frame_id: "imu_link"
orientation: 
  x: 0.41587810065351893
  y: 0.5728893971012139
  z: 0.5810360456378888
  w: -0.401547329408769
orientation_covariance: [0.01, 0.0, 0.0, 0.0, 0.01, 0.0, 0.0, 0.0, 0.01]
angular_velocity: 
  x: -0.03848794102668762
  y: 0.009749267250299454
  z: -0.08354682475328445
angular_velocity_covariance: [0.01, 0.0, 0.0, 0.0, 0.01, 0.0, 0.0, 0.0, 0.01]
linear_acceleration: 
  x: 10.269787709806026
  y: -0.7900058398399992
  z: 0.8402326538826652
linear_acceleration_covariance: [0.01, 0.0, 0.0, 0.0, 0.01, 0.0, 0.0, 0.0, 0.01]
---
header: 
  seq: 29057
  stamp: 
    secs: 1718301324
    nsecs: 447074676
  frame_id: "imu_link"
orientation: 
  x: 0.41641942783875574
  y: 0.5726950906013603
  z: 0.5807061736682391
  w: -0.40174062924122567
orientation_covariance: [0.01, 0.0, 0.0, 0.0, 0.01, 0.0, 0.0, 0.0, 0.01]
angular_velocity: 
  x: -0.128270223736763
  y: -0.04936198517680168
  z: 0.022192666307091713
angular_velocity_covariance: [0.01, 0.0, 0.0, 0.0, 0.01, 0.0, 0.0, 0.0, 0.01]
linear_acceleration: 
  x: 9.903081500906456
  y: -0.929573744278536
  z: 0.6497531200433264
linear_acceleration_covariance: [0.01, 0.0, 0.0, 0.0, 0.01, 0.0, 0.0, 0.0, 0.01]
---
header: 
  seq: 29058
  stamp: 
    secs: 1718301324
    nsecs: 452109009
  frame_id: "imu_link"
orientation: 
  x: 0.4174834034298179
  y: 0.5724747969332399
  z: 0.5801472457815186
  w: -0.40175787229252935
orientation_covariance: [0.01, 0.0, 0.0, 0.0, 0.01, 0.0, 0.0, 0.0, 0.01]
angular_velocity: 
  x: -0.1899774968624115
  y: -0.1289808303117752
  z: 0.08552635461091995
angular_velocity_covariance: [0.01, 0.0, 0.0, 0.0, 0.01, 0.0, 0.0, 0.0, 0.01]
linear_acceleration: 
  x: 9.51674083596727
  y: -0.9672323670143511
  z: 0.5972096813032705
linear_acceleration_covariance: [0.01, 0.0, 0.0, 0.0, 0.01, 0.0, 0.0, 0.0, 0.01]
---
header: 
  seq: 29059
  stamp: 
    secs: 1718301324
    nsecs: 462274241
  frame_id: "imu_link"
orientation: 
  x: 0.41888165283607454
  y: 0.5722565907798469
  z: 0.5793721007730867
  w: -0.40173190571838524
orientation_covariance: [0.01, 0.0, 0.0, 0.0, 0.01, 0.0, 0.0, 0.0, 0.01]
angular_velocity: 
  x: -0.2417309284210205
  y: -0.1849348396062851
  z: 0.11179759353399277
angular_velocity_covariance: [0.01, 0.0, 0.0, 0.0, 0.01, 0.0, 0.0, 0.0, 0.01]
linear_acceleration: 
  x: 9.295544048233943
  y: -0.9034944205211276
  z: 0.6141290216881633
linear_acceleration_covariance: [0.01, 0.0, 0.0, 0.0, 0.01, 0.0, 0.0, 0.0, 0.01]
---
header: 
  seq: 29060
  stamp: 
    secs: 1718301324
    nsecs: 472195352
  frame_id: "imu_link"
orientation: 
  x: 0.4204162944892379
  y: 0.5720116081414863
  z: 0.5784937192821836
  w: -0.4017435453500093
orientation_covariance: [0.01, 0.0, 0.0, 0.0, 0.01, 0.0, 0.0, 0.0, 0.01]
angular_velocity: 
  x: -0.2726391851902008
  y: -0.20046356320381165
  z: 0.11661174893379211
angular_velocity_covariance: [0.01, 0.0, 0.0, 0.0, 0.01, 0.0, 0.0, 0.0, 0.01]
linear_acceleration: 
  x: 9.143482501864042
  y: -0.9362017888308902
  z: 0.4930620346227556
linear_acceleration_covariance: [0.01, 0.0, 0.0, 0.0, 0.01, 0.0, 0.0, 0.0, 0.01]
---
header: 
  seq: 29061
  stamp: 
    secs: 1718301324
    nsecs: 482235937
  frame_id: "imu_link"
orientation: 
  x: 0.4219589328936733
  y: 0.5717932126984975
  z: 0.5775028247747777
  w: -0.4018627480126965
orientation_covariance: [0.01, 0.0, 0.0, 0.0, 0.01, 0.0, 0.0, 0.0, 0.01]
angular_velocity: 
  x: -0.293121337890625
  y: -0.20512719452381134
  z: 0.0945947915315628
angular_velocity_covariance: [0.01, 0.0, 0.0, 0.0, 0.01, 0.0, 0.0, 0.0, 0.01]
linear_acceleration: 
  x: 9.021115581469399
  y: -0.862104504502386
  z: 0.21062768702088397
linear_acceleration_covariance: [0.01, 0.0, 0.0, 0.0, 0.01, 0.0, 0.0, 0.0, 0.01]
---
header: 
  seq: 29062
  stamp: 
    secs: 1718301324
    nsecs: 492038968
  frame_id: "imu_link"
orientation: 
  x: 0.4233106755415332
  y: 0.571694819385036
  z: 0.5764304919572051
  w: -0.40212062046462743
orientation_covariance: [0.01, 0.0, 0.0, 0.0, 0.01, 0.0, 0.0, 0.0, 0.01]
angular_velocity: 
  x: -0.2840922176837921
  y: -0.1980542689561844
  z: 0.04040475934743881
angular_velocity_covariance: [0.01, 0.0, 0.0, 0.0, 0.01, 0.0, 0.0, 0.0, 0.01]
linear_acceleration: 
  x: 8.883916417792433
  y: -0.828100228220893
  z: -0.09744592325648319
linear_acceleration_covariance: [0.01, 0.0, 0.0, 0.0, 0.01, 0.0, 0.0, 0.0, 0.01]
---
header: 
  seq: 29063
  stamp: 
    secs: 1718301324
    nsecs: 502048956
  frame_id: "imu_link"
orientation: 
  x: 0.4245692255107375
  y: 0.5715651846863278
  z: 0.5752561948248734
  w: -0.402659313464005
orientation_covariance: [0.01, 0.0, 0.0, 0.0, 0.01, 0.0, 0.0, 0.0, 0.01]
angular_velocity: 
  x: -0.31663474440574646
  y: -0.1745537370443344
  z: -0.00995092187076807
angular_velocity_covariance: [0.01, 0.0, 0.0, 0.0, 0.01, 0.0, 0.0, 0.0, 0.01]
linear_acceleration: 
  x: 8.935692271959608
  y: -0.9975214471981299
  z: -0.14162735947749205
linear_acceleration_covariance: [0.01, 0.0, 0.0, 0.0, 0.01, 0.0, 0.0, 0.0, 0.01]
---
header: 
  seq: 29064
  stamp: 
    secs: 1718301324
    nsecs: 512254193
  frame_id: "imu_link"
orientation: 
  x: 0.42568124348601477
  y: 0.5713850452679506
  z: 0.5740823592232382
  w: -0.4034154853460918
orientation_covariance: [0.01, 0.0, 0.0, 0.0, 0.01, 0.0, 0.0, 0.0, 0.01]
angular_velocity: 
  x: -0.3286782205104828
  y: -0.1379811018705368
  z: -0.0494336262345314
angular_velocity_covariance: [0.01, 0.0, 0.0, 0.0, 0.01, 0.0, 0.0, 0.0, 0.01]
linear_acceleration: 
  x: 9.14657042147842
  y: -1.2096928514267815
  z: -0.2007716573640248
linear_acceleration_covariance: [0.01, 0.0, 0.0, 0.0, 0.01, 0.0, 0.0, 0.0, 0.01]
---
header: 
  seq: 29065
  stamp: 
    secs: 1718301324
    nsecs: 522106010
  frame_id: "imu_link"
orientation: 
  x: 0.42634491649067147
  y: 0.5713101323565617
  z: 0.5731680127573368
  w: -0.40412024695763
orientation_covariance: [0.01, 0.0, 0.0, 0.0, 0.01, 0.0, 0.0, 0.0, 0.01]
angular_velocity: 
  x: -0.24079154431819916
  y: -0.08773200213909149
  z: -0.08562900125980377
angular_velocity_covariance: [0.01, 0.0, 0.0, 0.0, 0.01, 0.0, 0.0, 0.0, 0.01]
linear_acceleration: 
  x: 9.411640144590628
  y: -1.514407087606513
  z: -0.30268131010115745
linear_acceleration_covariance: [0.01, 0.0, 0.0, 0.0, 0.01, 0.0, 0.0, 0.0, 0.01]
---
header: 
  seq: 29066
  stamp: 
    secs: 1718301324
    nsecs: 532237690
  frame_id: "imu_link"
orientation: 
  x: 0.4266176828455916
  y: 0.5713238984399176
  z: 0.5725421793966271
  w: -0.4046996522936897
orientation_covariance: [0.01, 0.0, 0.0, 0.0, 0.01, 0.0, 0.0, 0.0, 0.01]
angular_velocity: 
  x: -0.1499534547328949
  y: -0.045315731316804886
  z: -0.10175462812185287
angular_velocity_covariance: [0.01, 0.0, 0.0, 0.0, 0.01, 0.0, 0.0, 0.0, 0.01]
linear_acceleration: 
  x: 9.788999265167845
  y: -1.726468437320662
  z: -0.19932252538993486
linear_acceleration_covariance: [0.01, 0.0, 0.0, 0.0, 0.01, 0.0, 0.0, 0.0, 0.01]
---
header: 
  seq: 29067
  stamp: 
    secs: 1718301324
    nsecs: 542118437
  frame_id: "imu_link"
orientation: 
  x: 0.4265759555877329
  y: 0.5713182112725301
  z: 0.5722591290579361
  w: -0.4051517552629158
orientation_covariance: [0.01, 0.0, 0.0, 0.0, 0.01, 0.0, 0.0, 0.0, 0.01]
angular_velocity: 
  x: -0.07177140563726425
  y: 0.009240412153303623
  z: -0.0946323499083519
angular_velocity_covariance: [0.01, 0.0, 0.0, 0.0, 0.01, 0.0, 0.0, 0.0, 0.01]
linear_acceleration: 
  x: 10.001121350360952
  y: -1.8497320051809707
  z: -0.06265866447405583
linear_acceleration_covariance: [0.01, 0.0, 0.0, 0.0, 0.01, 0.0, 0.0, 0.0, 0.01]
---
header: 
  seq: 29068
  stamp: 
    secs: 1718301324
    nsecs: 557108323
  frame_id: "imu_link"
orientation: 
  x: 0.4262133111291086
  y: 0.571328333748326
  z: 0.5722752153068713
  w: -0.40549627176855435
orientation_covariance: [0.01, 0.0, 0.0, 0.0, 0.01, 0.0, 0.0, 0.0, 0.01]
angular_velocity: 
  x: 0.004026246257126331
  y: 0.0582428015768528
  z: -0.09676087647676468
angular_velocity_covariance: [0.01, 0.0, 0.0, 0.0, 0.01, 0.0, 0.0, 0.0, 0.01]
linear_acceleration: 
  x: 9.944117678426043
  y: -1.8998455110227617
  z: -0.04692973091440314
linear_acceleration_covariance: [0.01, 0.0, 0.0, 0.0, 0.01, 0.0, 0.0, 0.0, 0.01]
---
header: 
  seq: 29069
  stamp: 
    secs: 1718301324
    nsecs: 562244034
  frame_id: "imu_link"
orientation: 
  x: 0.42552812142099194
  y: 0.5714114329713769
  z: 0.5725090264937163
  w: -0.40576866159517117
orientation_covariance: [0.01, 0.0, 0.0, 0.0, 0.01, 0.0, 0.0, 0.0, 0.01]
angular_velocity: 
  x: 0.07369573414325714
  y: 0.09486520290374756
  z: -0.11359846591949463
angular_velocity_covariance: [0.01, 0.0, 0.0, 0.0, 0.01, 0.0, 0.0, 0.0, 0.01]
linear_acceleration: 
  x: 9.841531344546704
  y: -1.8382598495239963
  z: -0.04745424870410316
linear_acceleration_covariance: [0.01, 0.0, 0.0, 0.0, 0.01, 0.0, 0.0, 0.0, 0.01]
---
header: 
  seq: 29070
  stamp: 
    secs: 1718301324
    nsecs: 572181618
  frame_id: "imu_link"
orientation: 
  x: 0.424562901043375
  y: 0.5715745750840049
  z: 0.5728499703288346
  w: -0.40606866373733674
orientation_covariance: [0.01, 0.0, 0.0, 0.0, 0.01, 0.0, 0.0, 0.0, 0.01]
angular_velocity: 
  x: 0.11823340505361557
  y: 0.12216383963823318
  z: -0.14538592100143433
angular_velocity_covariance: [0.01, 0.0, 0.0, 0.0, 0.01, 0.0, 0.0, 0.0, 0.01]
linear_acceleration: 
  x: 9.745952880292077
  y: -1.659624019492512
  z: 0.04982371012866452
linear_acceleration_covariance: [0.01, 0.0, 0.0, 0.0, 0.01, 0.0, 0.0, 0.0, 0.01]
---
header: 
  seq: 29071
  stamp: 
    secs: 1718301324
    nsecs: 582052737
  frame_id: "imu_link"
orientation: 
  x: 0.4234487476490133
  y: 0.5717075340451312
  z: 0.5732481751879871
  w: -0.40648269738595305
orientation_covariance: [0.01, 0.0, 0.0, 0.0, 0.01, 0.0, 0.0, 0.0, 0.01]
angular_velocity: 
  x: 0.12468713521957397
  y: 0.15292151272296906
  z: -0.16741876304149628
angular_velocity_covariance: [0.01, 0.0, 0.0, 0.0, 0.01, 0.0, 0.0, 0.0, 0.01]
linear_acceleration: 
  x: 9.739483866796467
  y: -1.56099097163827
  z: 0.1627056388450126
linear_acceleration_covariance: [0.01, 0.0, 0.0, 0.0, 0.01, 0.0, 0.0, 0.0, 0.01]
---
header: 
  seq: 29072
  stamp: 
    secs: 1718301324
    nsecs: 592046563
  frame_id: "imu_link"
orientation: 
  x: 0.4221941519995088
  y: 0.5718873729199039
  z: 0.5736860791898474
  w: -0.4069167153803914
orientation_covariance: [0.01, 0.0, 0.0, 0.0, 0.01, 0.0, 0.0, 0.0, 0.01]
angular_velocity: 
  x: 0.145742729306221
  y: 0.16671885550022125
  z: -0.18532179296016693
angular_velocity_covariance: [0.01, 0.0, 0.0, 0.0, 0.01, 0.0, 0.0, 0.0, 0.01]
linear_acceleration: 
  x: 9.705222663455963
  y: -1.4233746511189886
  z: 0.025399945480448022
linear_acceleration_covariance: [0.01, 0.0, 0.0, 0.0, 0.01, 0.0, 0.0, 0.0, 0.01]
---
header: 
  seq: 29073
  stamp: 
    secs: 1718301324
    nsecs: 602052874
  frame_id: "imu_link"
orientation: 
  x: 0.42075525019125704
  y: 0.5722796048666055
  z: 0.574073048057923
  w: -0.40730972095409196
orientation_covariance: [0.01, 0.0, 0.0, 0.0, 0.01, 0.0, 0.0, 0.0, 0.01]
angular_velocity: 
  x: 0.1846020668745041
  y: 0.1485225260257721
  z: -0.22356483340263367
angular_velocity_covariance: [0.01, 0.0, 0.0, 0.0, 0.01, 0.0, 0.0, 0.0, 0.01]
linear_acceleration: 
  x: 9.596523509115505
  y: -1.3692421005380435
  z: -0.00022613775286677552
linear_acceleration_covariance: [0.01, 0.0, 0.0, 0.0, 0.01, 0.0, 0.0, 0.0, 0.01]
---
header: 
  seq: 29074
  stamp: 
    secs: 1718301324
    nsecs: 612108770
  frame_id: "imu_link"
orientation: 
  x: 0.4192273586579014
  y: 0.5728515095565767
  z: 0.5744094572185953
  w: -0.4076068512786672
orientation_covariance: [0.01, 0.0, 0.0, 0.0, 0.01, 0.0, 0.0, 0.0, 0.01]
angular_velocity: 
  x: 0.21615666151046753
  y: 0.12039709836244583
  z: -0.24345585703849792
angular_velocity_covariance: [0.01, 0.0, 0.0, 0.0, 0.01, 0.0, 0.0, 0.0, 0.01]
linear_acceleration: 
  x: 9.657015132841991
  y: -1.50339398713918
  z: 0.0950676426293852
linear_acceleration_covariance: [0.01, 0.0, 0.0, 0.0, 0.01, 0.0, 0.0, 0.0, 0.01]
---
header: 
  seq: 29075
  stamp: 
    secs: 1718301324
    nsecs: 622080033
  frame_id: "imu_link"
orientation: 
  x: 0.41768243410649425
  y: 0.5735352298126587
  z: 0.5747361831735522
  w: -0.40777082307800316
orientation_covariance: [0.01, 0.0, 0.0, 0.0, 0.01, 0.0, 0.0, 0.0, 0.01]
angular_velocity: 
  x: 0.24170543253421783
  y: 0.09677674621343613
  z: -0.240957573056221
angular_velocity_covariance: [0.01, 0.0, 0.0, 0.0, 0.01, 0.0, 0.0, 0.0, 0.01]
linear_acceleration: 
  x: 9.669960466356995
  y: -1.5501625892253612
  z: 0.09926112348861477
linear_acceleration_covariance: [0.01, 0.0, 0.0, 0.0, 0.01, 0.0, 0.0, 0.0, 0.01]
---
header: 
  seq: 29076
  stamp: 
    secs: 1718301324
    nsecs: 632215728
  frame_id: "imu_link"
orientation: 
  x: 0.4161775320530861
  y: 0.5743069634967778
  z: 0.5750714387802115
  w: -0.407750676017307
orientation_covariance: [0.01, 0.0, 0.0, 0.0, 0.01, 0.0, 0.0, 0.0, 0.01]
angular_velocity: 
  x: 0.26611608266830444
  y: 0.06845748424530029
  z: -0.2213117927312851
angular_velocity_covariance: [0.01, 0.0, 0.0, 0.0, 0.01, 0.0, 0.0, 0.0, 0.01]
linear_acceleration: 
  x: 9.822673206659179
  y: -1.4973277457671854
  z: 0.16225404715525243
linear_acceleration_covariance: [0.01, 0.0, 0.0, 0.0, 0.01, 0.0, 0.0, 0.0, 0.01]
---
header: 
  seq: 29077
  stamp: 
    secs: 1718301324
    nsecs: 642194210
  frame_id: "imu_link"
orientation: 
  x: 0.4149048480473631
  y: 0.575054580881202
  z: 0.5753520480712793
  w: -0.4075981070301042
orientation_covariance: [0.01, 0.0, 0.0, 0.0, 0.01, 0.0, 0.0, 0.0, 0.01]
angular_velocity: 
  x: 0.24813413619995117
  y: 0.03435627743601799
  z: -0.18107041716575623
angular_velocity_covariance: [0.01, 0.0, 0.0, 0.0, 0.01, 0.0, 0.0, 0.0, 0.01]
linear_acceleration: 
  x: 9.961831432025837
  y: -1.4173249635899432
  z: 0.23768214629242393
linear_acceleration_covariance: [0.01, 0.0, 0.0, 0.0, 0.01, 0.0, 0.0, 0.0, 0.01]
---
header: 
  seq: 29078
  stamp: 
    secs: 1718301324
    nsecs: 652108955
  frame_id: "imu_link"
orientation: 
  x: 0.41395792728071445
  y: 0.5756237636223195
  z: 0.5756144649739842
  w: -0.4073869228478558
orientation_covariance: [0.01, 0.0, 0.0, 0.0, 0.01, 0.0, 0.0, 0.0, 0.01]
angular_velocity: 
  x: 0.20129387080669403
  y: 0.01827067881822586
  z: -0.12474465370178223
angular_velocity_covariance: [0.01, 0.0, 0.0, 0.0, 0.01, 0.0, 0.0, 0.0, 0.01]
linear_acceleration: 
  x: 10.134170408528382
  y: -1.5518580452366435
  z: 0.5622125169381387
linear_acceleration_covariance: [0.01, 0.0, 0.0, 0.0, 0.01, 0.0, 0.0, 0.0, 0.01]
---
header: 
  seq: 29079
  stamp: 
    secs: 1718301324
    nsecs: 662183467
  frame_id: "imu_link"
orientation: 
  x: 0.413419667099733
  y: 0.5759204061898963
  z: 0.5759493558051687
  w: -0.4070407892789394
orientation_covariance: [0.01, 0.0, 0.0, 0.0, 0.01, 0.0, 0.0, 0.0, 0.01]
angular_velocity: 
  x: 0.15358836948871613
  y: 0.01499473862349987
  z: -0.035785824060440063
angular_velocity_covariance: [0.01, 0.0, 0.0, 0.0, 0.01, 0.0, 0.0, 0.0, 0.01]
linear_acceleration: 
  x: 10.201194977833591
  y: -1.7686380393423025
  z: 0.41929962312066665
linear_acceleration_covariance: [0.01, 0.0, 0.0, 0.0, 0.01, 0.0, 0.0, 0.0, 0.01]
---
header: 
  seq: 29080
  stamp: 
    secs: 1718301324
    nsecs: 672161303
  frame_id: "imu_link"
orientation: 
  x: 0.4133621565044736
  y: 0.5760501787731984
  z: 0.576267224501472
  w: -0.4064652569048274
orientation_covariance: [0.01, 0.0, 0.0, 0.0, 0.01, 0.0, 0.0, 0.0, 0.01]
angular_velocity: 
  x: 0.10964596271514893
  y: -0.023905014619231224
  z: 0.05747440457344055
angular_velocity_covariance: [0.01, 0.0, 0.0, 0.0, 0.01, 0.0, 0.0, 0.0, 0.01]
linear_acceleration: 
  x: 10.095802025505572
  y: -1.8467641865512967
  z: 0.21880341599509184
linear_acceleration_covariance: [0.01, 0.0, 0.0, 0.0, 0.01, 0.0, 0.0, 0.0, 0.01]
---
header: 
  seq: 29081
  stamp: 
    secs: 1718301324
    nsecs: 682169542
  frame_id: "imu_link"
orientation: 
  x: 0.4136292241846851
  y: 0.5761424651190714
  z: 0.5765770149269781
  w: -0.4056225716658165
orientation_covariance: [0.01, 0.0, 0.0, 0.0, 0.01, 0.0, 0.0, 0.0, 0.01]
angular_velocity: 
  x: 0.09930803626775742
  y: -0.06764344871044159
  z: 0.12810435891151428
